bus_stop_id,bus_stop_nm,lng,lat,type
11833,중계역,127.0627647339,37.6472686025,버스정류장
11834,중계역,127.0628447488,37.6480849384,버스정류장
11835,하계역,127.068859365,37.6350402373,버스정류장
11836,하계역,127.0683473286,37.6351558735,버스정류장
11842,선곡경로당,127.0586613199,37.61708085,버스정류장
14534,성원아파트,126.901603,37.556576,버스정류장
14536,서일빌딩,126.9159825506,37.5454162494,버스정류장
14537,청원빌딩,126.9181649687,37.5584151692,버스정류장
14989,신촌역,126.9358956814,37.5542870566,버스정류장
14990,신촌역,126.9356255921,37.5544909027,버스정류장
16612,대한항공,126.8150621212,37.5499834076,버스정류장
16864,아람마트,126.85496215,37.5344073361,버스정류장
16967,등촌5단지,126.8439155633,37.5591423356,버스정류장
5,한강버스.여의도선착장,126.934607,37.52901,버스정류장
6,한강버스.망원선착장,126.894245,37.55468,버스정류장
7,한강버스.마곡선착장,126.84404,37.5751,버스정류장
1001,종로2가사거리,126.9877522923,37.5698055407,버스정류장
1002,창경궁.서울대학교병원,126.9965206101,37.579432932,버스정류장
1003,명륜3가.성대입구,126.9982508372,37.5825800121,버스정류장
1004,종로2가.삼일교,126.9876130976,37.5685792736,버스정류장
1005,혜화동로터리.여운형활동터,127.001744,37.586243,버스정류장
1006,서대문역사거리,126.966893,37.566137,버스정류장
1007,서울역사박물관.경희궁앞,126.97038,37.569135,버스정류장
1008,서울역사박물관.경희궁앞,126.9707589959,37.5695119837,버스정류장
1009,광화문역,126.9763534416,37.5701416811,버스정류장
1010,광화문역,126.9778802991,37.5702396638,버스정류장
1011,종로1가,126.9810660928,37.5701482455,버스정류장
1012,종로1가,126.9816283242,37.5702710116,버스정류장
1013,종로2가,126.9849902588,37.5701723774,버스정류장
1014,종로2가,126.9865353674,37.5702378859,버스정류장
1015,종로3가.탑골공원,126.9893256464,37.5702088889,버스정류장
1016,종로3가.탑골공원,126.9899877751,37.5703605443,버스정류장
1017,종로4가.종묘,126.9947218896,37.5705069968,버스정류장
1018,종로4가.종묘,126.995395739,37.570635002,버스정류장
1019,종로5가.광장시장,126.9990604685,37.5707860047,버스정류장
1020,종로5가.광장시장,126.9996038113,37.570930167,버스정류장
1021,종로6가.동대문종합시장,127.004462788,37.5710111729,버스정류장
1022,종로6가.동대문종합시장,127.0057137364,37.5711272339,버스정류장
1023,동대문역.흥인지문,127.013815948,37.572447536,버스정류장
1037,동대문역.흥인지문,127.0124191046,37.5721524474,버스정류장
1041,동묘앞.서울혜화경찰서,127.0186102731,37.5738321574,버스정류장
1044,동묘앞.서울혜화경찰서,127.0195527812,37.5742464626,버스정류장
1101,경기상고,126.9693634554,37.5875502159,버스정류장
1102,신교동,126.9702626865,37.5832955233,버스정류장
1103,경기상고,126.9697701102,37.5871907861,버스정류장
1104,경복고교,126.9708802468,37.5851600316,버스정류장
1105,청운중학교,126.9726741314,37.587810579,버스정류장
1106,자하문고개.윤동주문학관,126.9671261805,37.5921866176,버스정류장
1107,자하문고개.윤동주문학관,126.9671906625,37.5923353152,버스정류장
1108,청운중학교,126.9722631304,37.5884219586,버스정류장
1109,경복고교,126.9714039185,37.5850633028,버스정류장
1110,통인시장종로구보건소,126.9710500404,37.5803257033,버스정류장
1111,통인시장종로구보건소,126.9713851083,37.5805132118,버스정류장
1112,효자동,126.9706209712,37.583091043,버스정류장
1113,사직단.어린이도서관,126.9679907155,37.5751355316,버스정류장
1114,경복궁역1번출구,126.9714158133,37.5761614873,버스정류장
1115,경복궁역2번출구,126.9721994292,37.577040144,버스정류장
1116,경복궁역3번출구,126.9722828893,37.5776713863,버스정류장
1117,경복궁,126.9787471496,37.5755767894,버스정류장
1118,광화문역2번출구.KT광화문지사,126.9774162769,37.5723209262,버스정류장
1119,영추문,126.9739817664,37.5789303855,버스정류장
1120,광화문역6번출구,126.97640724,37.5700448348,버스정류장
1123,서울역사박물관.강북삼성병원,126.971248,37.570023,버스정류장
1124,새문안교회,126.9728386477,37.5703368912,버스정류장
1125,광화문역7번출구,126.975837,37.570365,버스정류장
1126,세종문화회관,126.9769975778,37.5736489318,버스정류장
1127,서울경찰청.경복궁역,126.9714842989,37.5757446636,버스정류장
1128,사직단,126.968188961,37.5748553458,버스정류장
1129,광화문역6번출구.광화문빌딩,126.9768637419,37.5695035518,버스정류장
1130,덕성여중고,126.981972246,37.5757693863,버스정류장
1131,안국역.서울공예박물관,126.9839957858,37.5760695565,버스정류장
1132,국민은행세검정지점,126.9608880061,37.6046629766,버스정류장
1133,세검정초등학교,126.9612198463,37.6025022799,버스정류장
1134,세검정.상명대,126.9582921267,37.6004770909,버스정류장
1135,상명대입구.석파랑,126.958570225,37.5994133537,버스정류장
1136,하림각,126.9617068235,37.5981330665,버스정류장
1137,자하문터널입구.석파정,126.9636434993,37.5955935123,버스정류장
1138,부암동주민센터.무계원,126.9642221989,37.5927670827,버스정류장
1139,부암동주민센터.무계원,126.9651419211,37.5927861733,버스정류장
1140,자하문터널입구.석파정,126.9639775924,37.5955575712,버스정류장
1141,하림각,126.962215308,37.5981476478,버스정류장
1142,상명대입구.세검정교회,126.9592405649,37.5996163318,버스정류장
1143,세검정.세검정성당,126.959155798,37.6006470965,버스정류장
1144,세검정초등학교,126.9614328894,37.6022680671,버스정류장
1146,국민은행세검정지점,126.9611926889,37.6048461618,버스정류장
1148,승가사입구,126.9563059978,37.6115844138,버스정류장
1149,구기동현대빌라,126.9564575503,37.6100355035,버스정류장
1150,구기터널.삼성출판박물관,126.9562103294,37.6086098941,버스정류장
1151,구기터널.삼성출판박물관,126.9564166508,37.6083054034,버스정류장
1152,구기동,126.9585297928,37.6069644475,버스정류장
1153,구기동,126.9591017479,37.6070088003,버스정류장
1154,승가사입구,126.956482,37.61148,버스정류장
1155,갑을씨티텔앞,126.9635350292,37.6043709709,버스정류장
1156,평창파출소,126.9660432906,37.6053223656,버스정류장
1157,평창동주민센터,126.9695663093,37.6066073749,버스정류장
1158,일성아파트,126.9729237379,37.6088723554,버스정류장
1159,롯데아파트,126.9763156152,37.6103897208,버스정류장
1160,롯데아파트,126.976652,37.610248,버스정류장
1161,벽산평창힐스아파트,126.972797,37.60819,버스정류장
1162,예능교회,126.97,37.606517,버스정류장
1163,서울예술고등학교.평창동주민센터,126.9676276108,37.6057787606,버스정류장
1164,화정박물관,126.9648102665,37.6045038178,버스정류장
1165,삼성강북병원.경교장,126.9686004828,37.568145927,버스정류장
1167,독립문역.서대문형무소역사관,126.959322,37.573395,버스정류장
1168,금화초등학교.서울시교육청,126.964867,37.567879,버스정류장
1169,서대문역사거리.적십자병원,126.9675878497,37.5671081521,버스정류장
1171,독립문,126.9614303112,37.5713430165,버스정류장
1172,창덕궁.우리소리박물관,126.9885394479,37.5775405746,버스정류장
1173,서린동.SK서린빌딩,126.9800947893,37.5692639006,버스정류장
1174,청계1가.장통교,126.9849267193,37.568684389,버스정류장
1175,청계2가.수표교,126.9908172161,37.5684453156,버스정류장
1176,청계4가.세운교,126.9965617399,37.5689254028,버스정류장
1177,청계5가.광장시장,126.9997973605,37.5694512793,버스정류장
1198,원남동,126.9973383362,37.5745325055,버스정류장
1199,창덕궁.우리소리박물관,126.9889538872,37.5772726542,버스정류장
1200,안국역6번출구.인사동문화의거리,126.9841344381,37.575798979,버스정류장
1201,조계사.종로경찰서,126.9831555803,37.5725223095,버스정류장
1202,조계사.종로경찰서,126.9828258888,37.5724858087,버스정류장
1203,안국동사거리,126.9827201116,37.5746105669,버스정류장
1204,효제동.김상옥의거터,127.00223,37.5745,버스정류장
1205,종로5가.효제초등학교,127.0021442279,37.5728790133,버스정류장
1209,창덕궁.돈화문국악당,126.991234977,37.5774327721,버스정류장
1212,종로5가역6번출구,127.0021826522,37.5705596025,버스정류장
1213,청계5가.마전교,127.0028494203,37.5698351103,버스정류장
1214,동대문,127.0084126252,37.5717262368,버스정류장
1215,충신동,127.006278812,37.5740223509,버스정류장
1217,충신동,127.0063433807,37.5744602778,버스정류장
1218,연지공원앞,127.0008065808,37.5759104142,버스정류장
1219,방송통신대.이화장,127.002437,37.578043,버스정류장
1220,혜화역2번출구.마로니에공원,127.0022769364,37.5811194873,버스정류장
1221,혜화역3번출구.서울대병원입구,127.0018481852,37.5809559696,버스정류장
1222,방송통신대.이화장,127.0019782952,37.5777889737,버스정류장
1223,연지공원앞,127.0006951494,37.576119355,버스정류장
1224,창경궁.서울대학교병원,126.9968717143,37.5788279947,버스정류장
1225,이화동(이화장),127.0032708172,37.5759372914,버스정류장
1226,혜화동로터리,127.0006878052,37.5855803307,버스정류장
1227,명륜동2가.성균관대입구,126.9993412723,37.5834170764,버스정류장
2291,남산예장버스환승주차장,126.989289,37.55974,버스정류장
1228,혜화역.서울연극센터(장면총리가옥),127.0014608831,37.5840306853,버스정류장
1229,혜화역.동성중고(장면총리가옥),127.0015561579,37.5845329425,버스정류장
1231,종로구민회관.창신동두산아파트,127.0155555279,37.5740926792,버스정류장
1235,동묘앞역6번출구,127.0156014431,37.5716849566,버스정류장
1236,동묘앞역5번출구,127.0159450485,37.5719221488,버스정류장
1237,청계2가교차로,126.9878778705,37.5684809008,버스정류장
1238,창신3동주민센터,127.015178,37.578413,버스정류장
1239,숭인1동주민센터.창신역4번출구,127.0154557816,37.5786281555,버스정류장
1240,동묘앞역.롯데캐슬천지인,127.0158023517,37.5741800523,버스정류장
1243,신설동역오거리,127.0228414296,37.5756947252,버스정류장
1245,동묘앞역2번출구,127.0175234975,37.5736431148,버스정류장
1246,구기동현대빌라,126.956622,37.609682,버스정류장
1247,광장시장,126.9977437946,37.5694963125,버스정류장
1249,서울특별시재향군인회관,126.9974787875,37.5725807445,버스정류장
1250,서울역사박물관,126.9721318077,37.5699003386,버스정류장
1251,청계3가.관수교,126.9937793705,37.5686887917,버스정류장
1252,청계6가.버들다리,127.0080377075,37.5699303868,버스정류장
1253,청계7가.맑은내다리,127.0130967122,37.5700419608,버스정류장
1254,청계8가.영도교,127.0181256262,37.5708949889,버스정류장
1256,원남동사거리,126.9981123217,37.5757617378,버스정류장
1262,숭인2동주민센터,127.0204373408,37.5742721533,버스정류장
1267,조계사,126.9831609226,37.572800338,버스정류장
1272,세종문화회관,126.9770167126,37.5733655664,버스정류장
1277,이화동(이화장),127.002955,37.576257,버스정류장
1278,상명대정문,126.955143,37.601417,버스정류장
1279,이북오도청,126.9559729686,37.6127234824,버스정류장
1280,경복궁역(효자로입구),126.9743023448,37.576709505,버스정류장
1286,상명대입구.세검정교회,126.9597921957,37.5994435122,버스정류장
1287,상명대입구.석파랑,126.9581941404,37.5995718125,버스정류장
1288,종로중부새마을금고,127.0065911394,37.5724174899,버스정류장
1289,신설동역오거리.서울풍물시장,127.0231950517,37.5742548131,버스정류장
1291,청계2가.삼일교,126.9869890809,37.5683454305,버스정류장
1292,청계8가.황학교,127.0227870051,37.5721307298,버스정류장
1293,평창동삼성아파트,126.9787981475,37.6111800895,버스정류장
1294,안국역5번출구,126.9855365486,37.5763329308,버스정류장
1295,안국역.서울공예박물관,126.9848871214,37.5764140065,버스정류장
1296,창덕궁,126.9890031166,37.5772280879,버스정류장
1297,남인사마당,126.9874286375,37.5713191723,버스정류장
1500,평창파출소,126.9668167021,37.605681218,버스정류장
1501,삼청공원,126.9816468946,37.5882276807,버스정류장
1502,수성동계곡,126.9644678921,37.5820813834,버스정류장
1503,명륜3가종점,126.9928636796,37.5909483783,버스정류장
1504,명륜새마을금고,126.9967901477,37.5877854691,버스정류장
1505,서대문역3번출구,126.9663939394,37.5663370645,버스정류장
1506,낙산공원,127.0087215681,37.5804037213,버스정류장
1507,인사미술공간.세탁소,126.9893670844,37.5814109836,버스정류장
1508,화정박물관,126.9648837454,37.6048011982,버스정류장
1509,금융연수원,126.9816582681,37.5866398268,버스정류장
1510,박노수미술관,126.966603478,37.5809967425,버스정류장
1511,샘미용실.종로구청소년상담복지센터,126.9932227051,37.5903095275,버스정류장
1512,서울국제고등학교,126.9972902593,37.5890715947,버스정류장
1513,화정박물관,126.9652007897,37.6049806084,버스정류장
1514,적십자병원후문앞,126.964905806,37.5679079449,버스정류장
1515,서울성곽.성대후문,126.989569366,37.5893663808,버스정류장
1516,빨래터.고희동미술관,126.9890634276,37.582987218,버스정류장
1517,세검초등학교,126.9614907597,37.6042522792,버스정류장
1518,삼청동주민센터,126.9819071619,37.5842638281,버스정류장
1519,통인시장,126.9684956941,37.5804417494,버스정류장
1520,양현관,126.9936043615,37.5897914226,버스정류장
1521,국민생활관,126.9988619666,37.5897456349,버스정류장
1522,오거리,126.9622629001,37.6070621164,버스정류장
1523,경희궁자이2.3단지,126.9640686009,37.5687871134,버스정류장
1524,창신쌍용2단지.한성대후문,127.0127581151,37.5812647965,버스정류장
1525,통일부,126.9859476734,37.5875948053,버스정류장
1526,원서고개,126.9878088426,37.583080553,버스정류장
1528,종로5가입구,126.9976709493,37.5717928476,버스정류장
1529,삼청파출소,126.9812510491,37.581813662,버스정류장
1530,오거리.한옥마을입구,126.9696088803,37.579404615,버스정류장
1531,명륜시장.성대후문,126.9952543092,37.5885110529,버스정류장
1532,혜화초등학교,126.9998516643,37.5872532276,버스정류장
1533,청련사입구,126.9624312007,37.6079803769,버스정류장
1534,영천시장,126.9627388724,37.5700818569,버스정류장
3258,용산역광장앞,126.965617,37.528333,버스정류장
1535,명신초.삼선푸르지오.힐스테이트,127.014556281,37.5821062067,버스정류장
1536,감사원,126.9852900569,37.5862106518,버스정류장
1537,중앙중고,126.986965299,37.583092177,버스정류장
1538,인왕빌딩,126.9577443332,37.6079283311,버스정류장
1539,종로4가.종묘공원,126.9946203403,37.5706890289,버스정류장
1540,국립민속박물관,126.9795533717,37.5792551846,버스정류장
1541,광화문새마을금고,126.9711466491,37.5793687689,버스정류장
1542,새마을금고,126.996518051,37.5877370613,버스정류장
1543,혜화우체국,127.0006137149,37.5860376565,버스정류장
1544,언덕앞,126.9637921715,37.6089539753,버스정류장
1545,경희궁자이4단지,126.9621148375,37.5707022242,버스정류장
1546,종로센트레빌후문.e편한세상보문아파트,127.0161855253,37.5817743934,버스정류장
1547,사우디대사관앞.북촌힐스,126.9850311776,37.5841056738,버스정류장
1548,안국선원.삼거리,126.984994076,37.5827909789,버스정류장
1549,구기터널입구,126.9567768927,37.6082046142,버스정류장
1550,종로3가역9번출구,126.9920931881,37.5710875771,버스정류장
1551,경복궁,126.9793377561,37.576950157,버스정류장
1553,소나무집,126.964110466,37.6112770717,버스정류장
1554,독립문역3번출구,126.9597453483,37.5728784775,버스정류장
1555,청룡사.보문파크뷰자이아파트,127.01700714,37.5800189539,버스정류장
1556,북촌한옥마을입구.정세권활동터,126.9849422317,37.5815997311,버스정류장
1557,종로1.2.3.4가동주민센터,126.9911314256,37.5743837122,버스정류장
1558,창덕궁,126.9906200153,37.5760892484,버스정류장
1561,아름다운실버,126.965463701,37.6120100581,버스정류장
1562,독립문초등학교,126.9606775165,37.5738699714,버스정류장
1563,종로센트레빌아파트,127.0156926979,37.5803534405,버스정류장
1564,가회동주민센터,126.9849543284,37.579972942,버스정류장
1565,구기빌라,126.9579797248,37.6062686142,버스정류장
1566,원남로터리,126.997511497,37.5762373738,버스정류장
1567,보현산신각,126.9657790521,37.6134825236,버스정류장
1568,린덴바움숲유치원,126.9618040443,37.5746692802,버스정류장
1569,쌍용아파트입구.창신역,127.0149635738,37.580511226,버스정류장
1570,아름다운가게.정독도서관,126.9851271782,37.5789480833,버스정류장
1571,산정빌라,126.9574922002,37.6051519935,버스정류장
1572,이화사거리,127.0020914666,37.5765095598,버스정류장
1573,박종화고택입구,126.9676873462,37.6143102577,버스정류장
1574,무악현대아파트후문,126.9619411637,37.5763372261,버스정류장
1576,헌법재판소.안국역,126.9858152185,37.5773871956,버스정류장
1577,청구빌라,126.9569839726,37.6046102563,버스정류장
1578,서울대어린이병원응급실.갑상선센터,126.9995029662,37.5781188768,버스정류장
1580,화인빌라,126.9685386165,37.6129345305,버스정류장
1581,행촌주차장,126.9628880463,37.5752728058,버스정류장
1582,창신초등학교,127.0153885503,37.5769032044,버스정류장
1583,수운회관,126.986669266,37.5752189424,버스정류장
1584,상명대후문,126.9573354115,37.6040255786,버스정류장
1586,힐탑,126.9690205751,37.6116055569,버스정류장
1587,성결교신대원총회본부,126.9634445669,37.5739763092,버스정류장
1589,낙원상가,126.9874148722,37.5737563689,버스정류장
1590,완성빌라,126.9575011241,37.6034020863,버스정류장
1591,서울대병원장례식장,126.9974309648,37.5805553988,버스정류장
1592,혜화역1번출구,127.0017632862,37.5834729904,버스정류장
1593,감나무골공원,126.9699479367,37.6124059606,버스정류장
1594,한국사회과학도서관.이회영기념관,126.9641239308,37.5736670147,버스정류장
1595,동묘앞역8번출구,127.0142453819,37.5726943506,버스정류장
1596,종로2가.탑골공원,126.9875484137,37.5705713654,버스정류장
1597,경진빌라,126.9578303612,37.6020037175,버스정류장
1598,성대입구,126.9992849459,37.5833533096,버스정류장
1601,청와대,126.973768082,37.5829712951,버스정류장
1602,춘추문,126.9796554436,37.5831276121,버스정류장
1603,경복궁.국립민속박물관,126.9795911351,37.5794135204,버스정류장
1607,EN갤러리,126.9706087294,37.6134217965,버스정류장
1612,유림회관앞,126.9969805237,37.5858955968,버스정류장
1615,성균관대정문,126.9966204422,37.5849563466,버스정류장
1616,600주년기념관,126.9939426439,37.5873281035,버스정류장
1617,성균관대운동장,126.99237,37.587863,버스정류장
1618,학생회관,126.9936746328,37.5874203934,버스정류장
1667,종로문화체육센터,126.9645321424,37.5746935562,버스정류장
1682,동대문역2번출구,127.0117218002,37.5720494465,버스정류장
1683,종각역.YMCA,126.98508926,37.5703976388,버스정류장
1684,서교빌라,126.9571553655,37.601989057,버스정류장
1685,경복궁역,126.9724733176,37.5770722054,버스정류장
1697,성대입구,126.998853007,37.5832668015,버스정류장
1698,무애사,126.9718458037,37.6139004282,버스정류장
1699,단군성전앞,126.9653175119,37.5755600915,버스정류장
1702,동대문종합시장,127.004958038,37.5712161296,버스정류장
1714,상명초등학교,126.956715418,37.6009238115,버스정류장
1720,법련사,126.9796650539,37.5765879752,버스정류장
1721,광화문새마을금고,126.9710277184,37.5794930902,버스정류장
1722,성균관대학교,126.996646,37.584886,버스정류장
1723,참샘골공원,126.9742524976,37.6146097003,버스정류장
1724,황학정앞,126.9653293849,37.5768126115,버스정류장
1725,종로5가역.중부교육지원청,127.0020898456,37.5714192458,버스정류장
1727,인사동들머리.3.1독립선언터,126.983296967,37.5719470235,버스정류장
1728,정독도서관,126.980080541,37.5802605382,버스정류장
1729,오거리.한옥마을입구,126.9697392663,37.5794684375,버스정류장
1732,평창공원지킴터입구,126.9757438761,37.6163963984,버스정류장
1733,창경궁.고궁호텔.메이플레이스호텔,126.9974492169,37.5765581609,버스정류장
1762,광화문,126.9755694982,37.5703374879,버스정류장
1763,종로1가,126.980129,37.57037,버스정류장
1766,종로2가,126.9864618183,37.5700824558,버스정류장
1767,종로3가역11번출구,126.9932082199,37.5706348964,버스정류장
1768,종로3가,126.9909932186,37.5701024255,버스정류장
1769,종로4가,126.9962507486,37.5704692645,버스정류장
1771,동대문종합시장.종로6가,127.0032911936,37.5708647997,버스정류장
1776,종로도서관,126.9671251598,37.5764842271,버스정류장
1777,경복궁역,126.9715056448,37.5761780936,버스정류장
1778,경복궁역7번출구,126.971681974,37.5758191735,버스정류장
1779,안국역,126.985229602,37.5766137515,버스정류장
1780,안국역,126.9855059829,37.5763185096,버스정류장
1781,창덕궁,126.9889000774,37.5775204226,버스정류장
1782,성대입구,126.9992357955,37.5832827975,버스정류장
1790,종로사우나,126.9877503526,37.5738011149,버스정류장
1791,홍지파크,126.9557163281,37.6012424257,버스정류장
1792,삼청파출소,126.9813258198,37.58164517,버스정류장
1793,통인시장.종로구보건소,126.9687504797,37.5803350289,버스정류장
1794,종로5가역.광장시장,127.000038992,37.5707724724,버스정류장
1795,평창동산림제3초소,126.9771030504,37.6173560499,버스정류장
1796,배화여중고,126.9676986337,37.5767787564,버스정류장
1797,대학로입구.이화사거리,127.0025801998,37.5759841652,버스정류장
1798,운현궁,126.9869813803,37.5752716136,버스정류장
1799,상명대입구,126.9569583018,37.6000210109,버스정류장
1800,삼청동주민센터,126.9822105151,37.5846846831,버스정류장
1801,박노수미술관,126.9668944502,37.5810265604,버스정류장
1802,김창열.윤명로화실,126.9783685436,37.616304998,버스정류장
1803,사직공원.경복궁역입구,126.9689039095,37.5762206893,버스정류장
1804,충신시장,127.005404874,37.5749766498,버스정류장
1805,안국역2번출구앞,126.9861183272,37.5771728174,버스정류장
1807,금융연수원,126.981847891,37.5858776706,버스정류장
1809,감람산기도원,126.9798729651,37.6159439291,버스정류장
1810,카센터.사직터널앞,126.9658895166,37.57409862,버스정류장
1812,재동초등학교,126.9853617134,37.578791085,버스정류장
1814,삼청공원삼거리.옥호정터,126.9817444742,37.5874185176,버스정류장
1815,이화사거리,127.0022812884,37.5753200672,버스정류장
1816,연화정사,126.9794938432,37.6146490046,버스정류장
1817,대신중고,126.9616893251,37.5726178078,버스정류장
1819,현대사거리,126.9866353642,37.5792417814,버스정류장
1820,교남동주민센터,126.9613278115,37.5721819807,버스정류장
1821,부암동주민센터.무계원,126.9637682263,37.5929353403,버스정류장
1823,형제봉입구,126.9816861503,37.6128643152,버스정류장
1824,교남동새마을금고,126.962337459,37.5714943551,버스정류장
1825,창신초교,127.0157200961,37.5760372123,버스정류장
1826,가회동주민센터,126.9851293823,37.5799426497,버스정류장
1827,볼링장,126.9879589184,37.5792554401,버스정류장
1829,석파정.서울미술관,126.9637824182,37.5947643228,버스정류장
1830,지구촌교회,126.9792421489,37.6131060324,버스정류장
1831,월암공원,126.9646918774,37.5712260916,버스정류장
1832,숭인1동주민센터,127.0155607478,37.5774150014,버스정류장
1833,북촌한옥마을입구.정세권활동터,126.9851687446,37.5812807738,버스정류장
1835,하림각,126.9629663842,37.5976847268,버스정류장
1836,보현빌라,126.9784205906,37.6153822583,버스정류장
1837,스위스대사관,126.9656960774,37.5701413179,버스정류장
1839,안국선원.삼거리,126.9852205387,37.5827432497,버스정류장
1840,세검정교회,126.9600291533,37.5993880238,버스정류장
1841,혜화동로터리,127.0010032298,37.5859196111,버스정류장
1842,김종영미술관,126.9781122953,37.6132637884,버스정류장
1843,서울시교육청,126.9666998924,37.569381682,버스정류장
1844,창신쌍용1단지.종로센트레빌아파트,127.0155692785,37.5803228198,버스정류장
1845,사우디대사관.북촌힐스,126.9852486243,37.583863308,버스정류장
1846,상명대입구,126.9574023475,37.5998544708,버스정류장
1847,혜화초등학교,126.9999909413,37.5873892922,버스정류장
1849,강북삼성병원,126.9683376852,37.5685315243,버스정류장
1850,청룡사.보문파크뷰자이아파트,127.0171508787,37.5797846496,버스정류장
1851,감사원,126.9855618026,37.5862656518,버스정류장
1852,국민생활관,126.9993137839,37.5896275957,버스정류장
1855,종로센트레빌후문.e편한세상보문아파트,127.0162353711,37.5818978359,버스정류장
1856,통일부,126.9861073451,37.5875308468,버스정류장
1858,서울국제고등학교,126.9971407875,37.5890742944,버스정류장
1860,성대후문.와룡공원,126.989734001,37.5891522774,버스정류장
1861,상명초등학교,126.9568173576,37.600904926,버스정류장
1862,새마을금고,126.9965690016,37.5878406881,버스정류장
1863,경진빌라,126.9579482257,37.6018640911,버스정류장
1864,명륜시장.성대후문,126.9952305162,37.5887246101,버스정류장
1865,완성빌라,126.9576665157,37.6033399708,버스정류장
1866,양현관,126.9937685575,37.5897680031,버스정류장
1868,상명대후문,126.9574633677,37.6040715802,버스정류장
1869,샘미용실.종로구청소년상담복지센터,126.9934084203,37.5902545716,버스정류장
1870,산정빌라,126.9575782035,37.6052835831,버스정류장
1872,구기빌라,126.9579809335,37.6061334517,버스정류장
1873,마트앞,126.958756466,37.6066987064,버스정류장
1874,국민은행.세검정지점,126.9608727063,37.6049541749,버스정류장
1876,혜화역4번출구,127.0015538872,37.5835080381,버스정류장
1877,방송통신대앞,127.0019926794,37.5786973612,버스정류장
1878,서울대치과대학,126.997800962,37.5774082997,버스정류장
1879,효제초교.연동교회.김마리아활동터,127.0022087811,37.5736413355,버스정류장
1881,성균관대학교,126.9900035953,37.5884638684,버스정류장
1883,서울대치과대학,126.9978632209,37.5775727323,버스정류장
1886,이화사거리,127.0020084833,37.5769483437,버스정류장
1887,서울대학교병원현관.암병원현관,126.9981631637,37.5790872846,버스정류장
1888,종각.공평유적전시관,126.9832427053,37.5715937879,버스정류장
1889,조계사,126.9831364101,37.5736021088,버스정류장
1901,동대문역JW메리어트동대문호텔,127.0092820998,37.5706369793,버스정류장
1902,대학로,127.0021204164,37.58189612,버스정류장
1903,창경궁,126.9964163097,37.5791596347,버스정류장
1904,창덕궁,126.9901776043,37.5775301708,버스정류장
1905,인사동.북촌,126.9837977873,37.5758950223,버스정류장
1906,경복궁.국립민속박물관,126.9795487018,37.579339181,버스정류장
1907,세종문화회관,126.9769120216,37.5731388499,버스정류장
1910,통인시장,126.9713315727,37.5791187605,버스정류장
1911,세종문화회관,126.9770139456,37.5731558567,버스정류장
1912,종각역,126.9828944171,37.5693799579,버스정류장
1913,인사동.탑골공원,126.9888006413,37.5701155367,버스정류장
1914,종묘.세운상가,126.9934997231,37.5703736241,버스정류장
1915,광장시장,126.9996789008,37.5707521431,버스정류장
1916,동묘.숭인동도깨비시장,127.0180439092,37.5734766013,버스정류장
1917,서울풍물시장,127.0231780999,37.5733400255,버스정류장
1918,청와대,126.9737600308,37.582684814,버스정류장
1919,서울역사박물관.경희궁,126.971956,37.569902,버스정류장
2001,명동성당.남대문세무서,126.9875299251,37.5649848069,버스정류장
2002,국가인권위.안중근활동터,126.9878515151,37.5643504711,버스정류장
2003,서울역버스환승센터,126.9722570849,37.5551460158,버스정류장
2004,서울역버스환승센터,126.9725924801,37.5554029828,버스정류장
2005,서울역버스환승센터,126.9727238221,37.555388989,버스정류장
2006,서울역버스환승센터,126.9728547738,37.5554794133,버스정류장
2007,서울역버스환승센터.강우규의거터,126.9729402621,37.5554141603,버스정류장
2008,숭례문,126.9737783904,37.5586388574,버스정류장
2100,서울시청,126.9806320857,37.5661382638,버스정류장
2101,만리동고개,126.9626582054,37.551787064,버스정류장
2102,손기정체육공원입구,126.9662339013,37.5544459527,버스정류장
2103,서울의료보건고등학교.서울역서부,126.9689026242,37.5558478973,버스정류장
2104,서울역서부,126.9691514463,37.556237644,버스정류장
2105,서울역서부,126.969293,37.555855,버스정류장
2106,중림동교차로,126.9691354395,37.5583836266,버스정류장
2107,중림동.충정로역2호선,126.9645407963,37.5596488763,버스정류장
2108,한국경제신문사.서소문역사공원,126.9678680149,37.5602111497,버스정류장
2109,한국경제신문사.서소문역사공원,126.9681135141,37.5606234736,버스정류장
2110,경찰청.동북아역사재단,126.9691267228,37.5630494858,버스정류장
2111,장충동써미트호텔,127.0066750078,37.5622736605,버스정류장
2113,농협은행.유관순활동터,126.9677868059,37.5649062803,버스정류장
2116,염천교,126.97311408,37.5598696316,버스정류장
2117,숭례문,126.97335794,37.5584010617,버스정류장
2118,숭례문.한국일보,126.9737375955,37.5587713091,버스정류장
2120,후암삼거리,126.9759937564,37.5534055956,버스정류장
2121,숭례문,126.974362745,37.5587633765,버스정류장
2122,숭례문,126.9740436876,37.5584195299,버스정류장
2123,숭례문.서울역4번출구,126.9736279452,37.5580006528,버스정류장
2124,숭례문.남대문시장8번출입구,126.9759976615,37.5588723988,버스정류장
2125,숭례문남산방향,126.9756720863,37.5585581643,버스정류장
2126,남대문시장.신세계앞,126.9800597585,37.561191081,버스정류장
2127,북창동.남대문시장,126.978555,37.561273,버스정류장
2128,소공동주민센터,126.97644367,37.562197167,버스정류장
2131,삼성본관앞,126.9759075283,37.5620517519,버스정류장
2132,시청역8번출구,126.976148714,37.562764205,버스정류장
2133,시청역9번출구.시청서소문2청사,126.9746522037,37.5631901447,버스정류장
2134,시청역11번출구,126.975314,37.563722,버스정류장
2135,시청.서소문청사,126.9749539314,37.5635248407,버스정류장
2136,광교,126.9828444051,37.5681069154,버스정류장
2137,서울신문사,126.9773647051,37.5683632936,버스정류장
2138,명동성당,126.9874193795,37.564974163,버스정류장
2139,우리은행종로지점,126.9828658628,37.5678390393,버스정류장
2140,롯데백화점,126.9822069938,37.5645069796,버스정류장
2141,해운센터.롯데영플라자,126.9815478394,37.5628907847,버스정류장
2142,명동.롯데영플라자,126.982008,37.562885,버스정류장
2143,명동입구B,126.9823981134,37.5644247651,버스정류장
2144,신세계백화점,126.9814315438,37.561127344,버스정류장
2145,남대문시장.회현역,126.9777650546,37.5582675237,버스정류장
2146,남대문시장.회현역,126.9784645011,37.5584920257,버스정류장
2147,남산3호터널,126.9827404025,37.5583104538,버스정류장
2148,남산3호터널.정화예술대학교,126.9826359346,37.5595260891,버스정류장
2149,명동역4번출구,126.9849157703,37.560657849,버스정류장
2150,퇴계로2가.명동역5번출구,126.9843582953,37.5609325805,버스정류장
2151,충무로역.한옥마을.한국의집,126.9917771969,37.5612508237,버스정류장
2152,충무로역.한옥마을.한국의집,126.9924098253,37.5609019668,버스정류장
2153,충무로역2번출구,126.9947285429,37.5612375854,버스정류장
2154,충무로역8번출구,126.9964921507,37.5620371603,버스정류장
2155,초동,126.9931119513,37.5633461766,버스정류장
2156,을지로입구.로얄호텔,126.9853902774,37.5658757422,버스정류장
2157,을지로입구.시청입구,126.9811712097,37.5661382638,버스정류장
2158,을지로2가.기업은행본점.서울노동청,126.9865233528,37.566246226,버스정류장
2159,을지로2가.파인에비뉴,126.988670826,37.5660727123,버스정류장
2160,을지로3가,126.9902600103,37.5663729806,버스정류장
2161,을지로3가,126.9914237666,37.5661389597,버스정류장
2162,을지로4가,126.9959336364,37.5666841559,버스정류장
2163,을지로4가.베스트웨스턴국도,126.9968473297,37.5664010399,버스정류장
2164,중구청앞.덕수중학교,126.9981484996,37.564717315,버스정류장
2165,방산시장.을지로4가역6번출구,126.999258524,37.5668182855,버스정류장
2166,을지로5가.중부시장,127.0011150411,37.5666200422,버스정류장
2167,방산시장.훈련원종합체육관,127.0024044565,37.5679608485,버스정류장
2168,을지로5가,127.0025945654,37.5658243542,버스정류장
2169,을지로6가.국립중앙의료원,127.0062316194,37.5661698346,버스정류장
2170,동대문역사문화공원역8번출구,127.0072096931,37.5650528273,버스정류장
2171,동대문역사문화공원역9번출구,127.0077222561,37.5651725525,버스정류장
2172,을지로6가.국립중앙의료원,127.0058434821,37.5664631128,버스정류장
2173,동대문역사문화공원,127.0083555318,37.5673541422,버스정류장
2174,동대문역사문화공원,127.0091685169,37.5674835037,버스정류장
2177,충무아트센터.스포츠센터.중부소방서,127.0135231437,37.5651675256,버스정류장
2178,충무아트센터.스포츠센터.중부소방서,127.0147408667,37.5650178857,버스정류장
2179,성동공업고등학교(무궁화회관),127.0157558376,37.5683481924,버스정류장
2180,성동공업고등학교앞,127.0161294881,37.5686950625,버스정류장
2181,신당역1번출구.서울중앙시장,127.0187426545,37.5657282804,버스정류장
2182,신당역4번출구.서울중앙시장,127.0194795301,37.5654920748,버스정류장
2183,성동고등학교,127.0221821569,37.5655941894,버스정류장
2184,성동고등학교,127.0223979004,37.5652410933,버스정류장
2187,신당동떡볶이타운.중구여성플라자,127.0150959791,37.5627954621,버스정류장
2188,신당동떡볶이타운.중구여성플라자,127.0151908517,37.5623100443,버스정류장
2189,청구초등학교.청구역,127.0132161263,37.5589483023,버스정류장
2190,장충초등학교.청구역,127.0130316796,37.559257398,버스정류장
2191,약수역2번출구.가온도서관,127.0110429415,37.5557929112,버스정류장
2192,약수역3번출구.약수하이츠,127.0113796895,37.5557496102,버스정류장
2193,약수역4번출구.금호터널입구,127.012012,37.553399,버스정류장
2194,약수역5번출구.금호터널입구,127.0118693353,37.55292373,버스정류장
2195,약수역8번출구.신당사회복지관,127.0099566945,37.5538646495,버스정류장
2196,약수역7번출구.약수동주민센터,127.0092978444,37.5528509718,버스정류장
2197,송도병원앞,127.0077186988,37.5502676468,버스정류장
2198,송도병원앞,127.0073984027,37.550227118,버스정류장
2199,약수역1번출구,127.009755648,37.556252533,버스정류장
2201,장충체육관앞,127.0080610837,37.5583362176,버스정류장
2202,장충체육관앞,127.0078281581,37.5580017329,버스정류장
2203,장충동.동국대입구,127.00590981,37.560621324,버스정류장
2204,장충동.동국대입구,127.0056290943,37.5606663921,버스정류장
2205,퇴계로6가,127.0039011095,37.5634011312,버스정류장
2206,퇴계로6가.광희동주민센터,127.00337576,37.5635284386,버스정류장
2207,퇴계로5가.충무초등학교,126.9999660413,37.5623804057,버스정류장
2208,퇴계로5가.중구청,126.9997252277,37.5627804223,버스정류장
2209,국립극장.반얀트리호텔,127.001094708,37.551481823,버스정류장
2210,국립극장.반얀트리호텔,127.0007525635,37.5515339575,버스정류장
2211,청구역2번출구,127.014656108,37.5599600605,버스정류장
2212,청구역3번출구,127.014219181,37.5599303778,버스정류장
2213,동화동.청구이편한세상,127.018125822,37.5600244709,버스정류장
2214,청구동.신당동삼성아파트,127.0182736903,37.5598126778,버스정류장
2215,백범광장,126.980093,37.555737,버스정류장
2218,남대문경찰서.서울역10번출구,126.9738404394,37.554128189,버스정류장
2219,남대문시장앞.이회영활동터,126.978580386,37.5609394169,버스정류장
2220,남산케이블카.남산산책로입구,126.9839798009,37.5552651842,버스정류장
2222,동대입구역.장충동,127.005445,37.558362,버스정류장
2223,약수역10번출구,127.009322,37.556256,버스정류장
2224,청계1가.광교,126.9833922386,37.5685707852,버스정류장
2225,청계2가.삼일교,126.9885301722,37.5678404706,버스정류장
2226,청계4가.배오개다리,126.9971755363,37.5684843738,버스정류장
2227,청계5가.방산시장,127.0008265972,37.5692149555,버스정류장
2228,청계6가.평화시장,127.0043806283,37.5694411915,버스정류장
2229,청계7가.동평화.청평화시장,127.0138508174,37.5695135434,버스정류장
2230,청계8가.영도교,127.0189971981,37.5707259153,버스정류장
2233,신한은행본점,126.975585201,37.5611965482,버스정류장
2234,퇴계로2가.명동역7번출구,126.985336,37.560988,버스정류장
2235,광희동.동대문역사문화공원역,127.0091092289,37.5654113309,버스정류장
2236,버티고개,127.0060242348,37.5478041512,버스정류장
2237,버티고개,127.0061899379,37.547650494,버스정류장
2240,청계3가.관수교,126.9929650755,37.5682134567,버스정류장
2241,청계6가.오간수교,127.0090361408,37.5694851752,버스정류장
2242,충무로역7번출구,126.9933889105,37.561690572,버스정류장
2246,을지로입구역.광교,126.9825656304,37.5676492567,버스정류장
2247,청계광장,126.978207,37.569011,버스정류장
2252,신당파인힐하나유보라,127.0248560363,37.5649809794,버스정류장
2253,명동입구,126.982474445,37.5647227393,버스정류장
2254,남산북측순환로입구,126.9988218165,37.5506986166,버스정류장
2255,신당동삼성아파트.금호여중,127.0187298806,37.5585545048,버스정류장
2256,신당동대우푸르지오.금호여중,127.019288178,37.5578078339,버스정류장
2257,황학동주민센터,127.0234023516,37.5668556166,버스정류장
2258,신당초등학교앞,127.0239172657,37.5644813411,버스정류장
2259,금호베스트빌.래미안하이베르,127.0240513307,37.5616452068,버스정류장
2260,금호베스트빌.래미안하이베르,127.0243472269,37.5622544456,버스정류장
2261,신당초등학교,127.024240415,37.5645028357,버스정류장
2272,방산종합시장,127.0019301271,37.5678058693,버스정류장
2273,황학동롯데캐슬,127.0220339686,37.5716601701,버스정류장
2274,광희문.광희동사거리,127.0086110484,37.5645499236,버스정류장
2275,광희문.광희동사거리,127.009677887,37.5644016142,버스정류장
2277,황학동롯데캐슬,127.0232958633,37.5708197498,버스정류장
2278,한국은행앞,126.9792899798,37.561408112,버스정류장
2279,서울기동대.광희초등학교,127.0144829458,37.5679222068,버스정류장
2280,동대문역사문화공원동문,127.0119962039,37.567700749,버스정류장
2281,서대문역사거리.농협중앙회,126.9679802656,37.5668848609,버스정류장
2282,서울역9번출구.서울스퀘어빌딩앞,126.97323173,37.555341632,버스정류장
2283,북창동.남대문시장,126.9769187336,37.5608462911,버스정류장
2284,남산공원.구힐튼호텔,126.976567168,37.5563677408,버스정류장
2285,남산공원.구힐튼호텔,126.9767113404,37.5566267411,버스정류장
2286,시청앞.덕수궁,126.9768355729,37.5662122834,버스정류장
2287,남대문세무서.국가인권위원회,126.987866112,37.5650839621,버스정류장
2288,장충문화체육센터.권기옥활동터,127.0025921056,37.5601745008,버스정류장
2289,남산1호터널,126.9921666231,37.5574051765,버스정류장
2501,약수역.3.6호선,127.011705637,37.5533046573,버스정류장
2502,조선일보,126.976883066,37.5687339805,버스정류장
2503,시청역,126.97701,37.566031,버스정류장
2505,서울역,126.9714245129,37.5581897679,버스정류장
2506,숭례문앞,126.976236105,37.5615164368,버스정류장
2507,시청역1호선.서울시청,126.977339075,37.5673960903,버스정류장
2510,신당역하나은행,127.0215878668,37.5654231103,버스정류장
2513,염천교,126.9711136524,37.5597925744,버스정류장
2516,한국경제신문사,126.9679526472,37.5609334062,버스정류장
2518,응봉근린공원.금호산,127.0169189818,37.5535217011,버스정류장
2519,서울방송고등학교.남산타운아파트,127.012409789,37.5495860191,버스정류장
2520,서울방송고등학교.남산타운아파트,127.0122783521,37.5496119425,버스정류장
2521,중구청소년센터.남산타운2상가,127.012751162,37.5516549062,버스정류장
2522,중구청소년센터.남산타운2상가,127.0121655599,37.5519027425,버스정류장
2523,약수시장.남산타운동문,127.0108500123,37.5517332168,버스정류장
2524,약수지구대,127.0119577646,37.5528410964,버스정류장
2605,남대문시장,126.979397311,37.5614284556,버스정류장
2639,을지로입구역롯데호텔,126.9803053067,37.5658047183,버스정류장
2640,소공동웨스틴조선호텔,126.9796461336,37.5645178283,버스정류장
2641,서울광장,126.978885,37.565352,버스정류장
2643,광화문코리아나호텔,126.97690745,37.5684013914,버스정류장
2649,서소문KAL빌딩,126.9743182567,37.5633387369,버스정류장
2652,동국대입구.앰배서더호텔,127.0026102024,37.5597717116,버스정류장
2661,광화문,126.9769067873,37.5687990002,버스정류장
2662,시청.덕수궁,126.976921,37.566254,버스정류장
2664,바비엥스위트,126.9676372948,37.5651089852,버스정류장
2665,서울역,126.9728595843,37.5578195556,버스정류장
2669,명동역.세종호텔,126.9864492986,37.5610860085,버스정류장
2679,충무로역.호텔피제이,126.9955605031,37.5617180187,버스정류장
2680,남대문시장,126.9787309255,37.560967378,버스정류장
2681,이비스엠버서더호텔,126.9823877131,37.5643534324,버스정류장
2682,프레이저플레이스,126.9692683016,37.5628476779,버스정류장
2686,아카시아호텔.웨스턴코업레지던스,127.0034786985,37.5665506121,버스정류장
2687,을지로코업레지던스,127.0053974501,37.5662333554,버스정류장
2688,토요코인호텔.이비스버젯호텔,127.0089472544,37.5645913489,버스정류장
2692,약수역,127.0098978294,37.5537889625,버스정류장
2693,남산밀레니엄힐튼호텔,126.9759752961,37.5554665731,버스정류장
2694,서울역,126.9720456834,37.5580158041,버스정류장
2695,숭례문라마다&스위트호텔,126.9720684843,37.5606109591,버스정류장
2699,시청역더플라자호텔,126.978066,37.564836,버스정류장
2706,시청.서울신문사,126.9773647244,37.568299316,버스정류장
2707,프레이저플레이스남대문,126.9762665716,37.5613760047,버스정류장
2708,프레이저플레이스남대문,126.9755365701,37.5610667807,버스정류장
2709,동대문역사문화공원,127.009245066,37.5653851887,버스정류장
2710,광희동더스프라지르서울동대문,127.0075552593,37.5647333277,버스정류장
2711,동대문디자인플라자DDP,127.009213839,37.5678529085,버스정류장
2712,베이튼호텔,127.0026364414,37.5649993215,버스정류장
2901,광화문,126.9768853297,37.5689435666,버스정류장
2902,덕수궁,126.976925,37.566106,버스정류장
2903,남대문시장,126.9753967375,37.5609231539,버스정류장
2904,명동,126.9856194882,37.5607583289,버스정류장
2905,남산골한옥마을,126.9924383581,37.5609950561,버스정류장
2906,앰버서더호텔,127.0026253879,37.5604635042,버스정류장
2907,신라호텔,127.0054272005,37.5583034007,버스정류장
2908,동대문디자인플라자.동대문시장,127.0085549376,37.5668754028,버스정류장
2919,서울역,126.972535,37.553928,버스정류장
2920,동대문디자인프라자,127.0091304267,37.5677625606,버스정류장
2921,방산.중부시장,126.9994422877,37.5668568761,버스정류장
2922,을지로3가,126.9923255915,37.5665349097,버스정류장
2923,을지로입구,126.981001305,37.5661309607,버스정류장
2925,명동입구,126.9823015539,37.5641526235,버스정류장
2926,신당동중앙시장,127.0194166277,37.5657553187,버스정류장
2927,남산오르미,126.9831348601,37.5581940477,버스정류장
3001,한강대교북단.LG유플러스,126.9631209528,37.5240499441,버스정류장
3002,한강대교북단.LG유플러스,126.9631848403,37.5243060629,버스정류장
3003,신용산역,126.966207,37.527293,버스정류장
3004,신용산역,126.9666192358,37.527920489,버스정류장
3005,용산우체국,126.9702350163,37.5314970129,버스정류장
3006,용산우체국,126.9705640624,37.5320503694,버스정류장
3007,삼각지역.전쟁기념관,126.9736858311,37.5351801399,버스정류장
3008,삼각지역.전쟁기념관,126.9741608708,37.5359845015,버스정류장
3009,숙대입구역,126.9725377982,37.543295633,버스정류장
4574,성동구청,127.0364064374,37.5641355512,버스정류장
3010,숙대입구역,126.9722320769,37.5437560216,버스정류장
3011,갈월동,126.9722373211,37.5509755993,버스정류장
3012,갈월동,126.9717081909,37.5495337218,버스정류장
3110,남영역.민주화운동기념관,126.9719271804,37.542006922,버스정류장
3111,남영역.민주화운동기념관,126.972069,37.541823,버스정류장
3119,신용산역3번출구,126.9673497525,37.5288895698,버스정류장
3120,서울드래곤시티,126.9630603924,37.5321566887,버스정류장
3121,용산역3번출구.용산차고지,126.9642145682,37.5318079061,버스정류장
3122,한강대교북단,126.963570714,37.5249689864,버스정류장
3124,서계동.서울역공항철도15번출구,126.9693404702,37.5524743044,버스정류장
3125,서계동,126.969221961,37.5516704971,버스정류장
3126,청파동,126.9701219815,37.5489916168,버스정류장
3127,청파시장,126.9698626298,37.548679027,버스정류장
3128,숙대입구역.청파동주민센터,126.9707772395,37.5453812474,버스정류장
3129,숙대입구역.청파동주민센터,126.9704188578,37.5454861572,버스정류장
3130,남영역.민주화운동기념관,126.971032,37.540813,버스정류장
3131,남영역.민주화운동기념관,126.9706761392,37.5405702704,버스정류장
3132,용산전자상가17동,126.9660271002,37.5337792589,버스정류장
3133,용산전자상가19동,126.9657072039,37.5335134935,버스정류장
3134,용산전자상가10동,126.9619640523,37.5332725045,버스정류장
3135,용산전자상가12동,126.9621689745,37.5330574076,버스정류장
3136,용산전자상가.전자랜드,126.9583252146,37.5327790559,버스정류장
3137,용산전자상가.전자랜드,126.9583363743,37.5330561177,버스정류장
3138,원효대교북단,126.956110982,37.5319853728,버스정류장
3139,용산경찰서,126.9691858135,37.5405032098,버스정류장
3140,용산경찰서,126.9690615428,37.5399994643,버스정류장
3141,용산꿈나무종합타운.원효로우체국,126.9669290534,37.5386139009,버스정류장
3142,용산e편한세상,126.9654677888,37.5374620591,버스정류장
3143,남정초등학교,126.9636632444,37.5363187485,버스정류장
3144,원효로2가,126.9629911361,37.536237441,버스정류장
3145,원효로2가사거리,126.9610704217,37.5349338369,버스정류장
3146,원효로3가,126.9581798302,37.5340407624,버스정류장
3147,원효로3가,126.9583248022,37.5337957151,버스정류장
3148,용암초등학교입구.이태원주공아파트,126.9886645749,37.5441159432,버스정류장
3149,이태원동남산대림아파트.용산동아파트,126.9874799728,37.5398743674,버스정류장
3150,용산한신아파트,126.9871086322,37.5398054732,버스정류장
3151,해방촌,126.986609087,37.537817739,버스정류장
3152,국군재정관리단,126.9868496115,37.5373177108,버스정류장
3153,용산구청,126.991163,37.530303,버스정류장
3154,용산구청,126.9911698907,37.5294095764,버스정류장
3155,한강중학교,126.9921715396,37.5254587536,버스정류장
3156,한강중학교,126.9924287738,37.5245025908,버스정류장
3157,서빙고역1번출구,126.9899502397,37.5200464191,버스정류장
3158,장충단로입구,127.002202,37.545795,버스정류장
3159,남산맨션아파트.남산예술원,127.00204,37.544437,버스정류장
3160,서울중부기술교육원.블루스퀘어,127.0033851827,37.5416918639,버스정류장
3161,서울시중부기술교육원.블루스퀘어,127.0031508133,37.5411791533,버스정류장
3162,순천향대학병원,127.0057302453,37.5364422432,버스정류장
3163,순천향대학병원,127.0062993526,37.5356114027,버스정류장
3164,순천향대학병원,127.0054993584,37.5357934643,버스정류장
3165,순천향대학병원.한남오거리,127.0057290409,37.5354906847,버스정류장
3166,한남오거리,127.0083126426,37.5328478217,버스정류장
3167,남산도서관.용산도서관,126.980835,37.552282,버스정류장
3168,남산도서관.용산도서관,126.9811340112,37.5520442521,버스정류장
3169,후암약수터,126.98432,37.54869,버스정류장
3170,후암약수터,126.9841668777,37.548395263,버스정류장
3171,용산2가동주민센터.보성여중고,126.9858399758,37.5463968458,버스정류장
3172,용산2가동주민센터.보성여중고,126.9856317665,37.5462598541,버스정류장
3173,남산야외식물원입구,126.9927901963,37.5427038827,버스정류장
3174,남산야외식물원입구,126.992916961,37.5425047481,버스정류장
3175,하얏트호텔,126.9961358368,37.5417535527,버스정류장
3176,하얏트호텔,126.9974258076,37.540866103,버스정류장
3177,용마루고개(서울자동차고등학교),126.9584647114,37.5406368923,버스정류장
3178,용마루고개.효창파크푸르지오아파트,126.9585520334,37.5402999129,버스정류장
3179,효창공원앞역.이봉창역사울림관,126.9618971064,37.5392719714,버스정류장
3180,효창공원앞역.이봉창역사울림관,126.9626978558,37.5388284845,버스정류장
3181,용산꿈나무종합타운.보건분소,126.9649997667,37.5384268178,버스정류장
3182,용산꿈나무종합타운.보건분소,126.964648,37.538295,버스정류장
3183,원효로제1동주민센터,126.9669923459,37.5376607152,버스정류장
3184,전쟁기념관,126.9768577525,37.5347586674,버스정류장
3185,전쟁기념관,126.9753831458,37.534651168,버스정류장
3186,녹사평역,126.9851183494,37.5351069553,버스정류장
3187,녹사평역,126.9853046955,37.5347582183,버스정류장
3188,용산구청.이태원시장,126.9904706555,37.5343830489,버스정류장
3189,용산구청.이태원시장,126.9900096398,37.5341127106,버스정류장
3190,이태원역1번출구.해밀턴호텔,126.993043,37.534552,버스정류장
3191,이태원역4번출구.해밀턴호텔,126.9934293088,37.5343539681,버스정류장
3192,이태원119안전센터,126.996387,37.53479,버스정류장
3193,이태원119안전센터,126.997179939,37.534604145,버스정류장
3194,한남동주민센터,127.0004667254,37.5370458894,버스정류장
3195,한남동주민센터,127.0006042579,37.5367073033,버스정류장
3196,한강진역.블루스퀘어,127.001695,37.540805,버스정류장
3197,한강진역.블루스퀘어,127.0020254103,37.5409291837,버스정류장
3198,서울역11번출구,126.9738943742,37.5536168846,버스정류장
3199,후암삼거리,126.9765772255,37.5525408404,버스정류장
3200,후암시장,126.9770644706,37.5506891863,버스정류장
3201,후암시장,126.9775446282,37.5497467332,버스정류장
3202,용산중고,126.9781855672,37.5466597949,버스정류장
3203,용산중고,126.978225,37.547205,버스정류장
3204,후암동종점.용산중학교,126.9809588102,37.5466989277,버스정류장
3205,용산고등학교,126.977563,37.54574,버스정류장
3206,남영동주민센터,126.976572,37.545772,버스정류장
3207,남영동주민센터,126.975732,37.545505,버스정류장
3208,남영우체국,126.973235384,37.5451241168,버스정류장
3209,갈월동사회복지관.남영우체국,126.973962,37.545409,버스정류장
3210,한남시범아파트,127.0122607528,37.5379429734,버스정류장
3211,한남시범아파트,127.0126714787,37.5377041394,버스정류장
3212,한남동,127.0084445845,37.5339127002,버스정류장
3213,한남동,127.0087002913,37.5337549896,버스정류장
3214,이촌동동부센트레빌,126.9660096214,37.5215595386,버스정류장
3215,이촌동두산위브트레지움.한강대우아파트,126.9675282802,37.5215734809,버스정류장
3216,이촌1동충신교회앞,126.968480845,37.5212831472,버스정류장
3217,이촌동한가람아파트.이촌역,126.9718842721,37.520656299,버스정류장
3218,이촌동한강맨션.이촌역,126.972709783,37.5201804898,버스정류장
3219,신용산초등학교,126.9745085046,37.5198497731,버스정류장
3220,신용산초등학교.중경고등학교,126.9762479627,37.5190775256,버스정류장
3221,중경고등학교.이촌동강촌아파트,126.9775234206,37.5189178471,버스정류장
3222,이촌동점보아파트,126.9784408808,37.5183827987,버스정류장
3223,이촌동현대아파트,126.9787120007,37.5185336834,버스정류장
3224,금강병원.반도아파트,126.9811234284,37.517704332,버스정류장
3225,서빙고신동아아파트,126.9851053606,37.517936953,버스정류장
3226,서빙고신동아아파트,126.985371435,37.5174859672,버스정류장
3227,만리동고개,126.9628215994,37.551670014,버스정류장
3228,손기정체육공원,126.9664230215,37.5542153265,버스정류장
3229,숙대입구역,126.970799,37.544479,버스정류장
3230,남영역.민주화운동기념관,126.9709244565,37.5422202391,버스정류장
3231,숙명여대도서관앞,126.9672216718,37.5448468654,버스정류장
3232,숙명여대도서관앞,126.9664464653,37.5448412411,버스정류장
3233,숙명여대정문,126.9641094647,37.5449594985,버스정류장
3234,숙명여대정문,126.9643096929,37.5451307674,버스정류장
3235,숙명여대후문.이봉창활동터,126.9632996424,37.5460839723,버스정류장
3236,효창공원후문,126.9625778991,37.5467910299,버스정류장
3237,한겨레신문사입구,126.9591928852,37.5458806239,버스정류장
3238,대한노인회중앙회,126.9576684412,37.5437890449,버스정류장
3239,효창운동장.효창동주민센터,126.9617671315,37.5422095196,버스정류장
3240,효창동주민센터.금양초등학교,126.9622336676,37.5416239572,버스정류장
3241,금양초등학교,126.9620007403,37.5412992546,버스정류장
3242,효창공원역,126.9610378658,37.5387860159,버스정류장
3243,도원삼성래미안아파트,126.9574338661,37.539776803,버스정류장
3244,도원삼성래미안아파트,126.9572103137,37.5396254142,버스정류장
3245,중앙하이츠빌라앞,126.9600336494,37.5380144603,버스정류장
3246,중앙하이츠빌라앞,126.9598809227,37.5379738635,버스정류장
3247,용문시장,126.9609679808,37.5363479221,버스정류장
3248,용문시장,126.9613595571,37.5359792047,버스정류장
3249,용산전자상가입구,126.9622225151,37.5345701678,버스정류장
3250,용산전자상가입구,126.9619447091,37.5346611171,버스정류장
3251,신용산지하차도,126.963668181,37.5328348806,버스정류장
3252,신용산지하차도,126.963882,37.53259,버스정류장
3253,신용산역5번출구,126.9676784797,37.5300338589,버스정류장
3255,용산역,126.9658224646,37.5288666127,버스정류장
3256,용산푸르지오써밋,126.96475962,37.5275756153,버스정류장
3257,용산푸르지오써밋,126.964578773,37.527230928,버스정류장
3259,용산역사박물관.용산철도고등학교,126.9660149714,37.5255972846,버스정류장
3260,용산역사박물관.용산철도고등학교,126.9671194025,37.5253057707,버스정류장
3261,용산세무서,126.9692440232,37.5237318415,버스정류장
3262,용산세무서,126.970154424,37.5236213922,버스정류장
3263,이촌역,126.9739086458,37.5226689183,버스정류장
3264,이촌역,126.9740268751,37.5223634662,버스정류장
3265,국립중앙박물관.용산가족공원,126.9786512102,37.5208980106,버스정류장
3266,국립중앙박물관.용산가족공원,126.9799562027,37.5208754875,버스정류장
3267,서빙고역교차로,126.9899,37.520427,버스정류장
3268,서빙고초등학교,126.9908893645,37.5211711184,버스정류장
3269,한강중학교,126.9913627138,37.5251140639,버스정류장
3270,서빙고동금호베스트빌,126.9907181939,37.5226362582,버스정류장
3272,서빙고동,126.992986,37.519851,버스정류장
3273,서빙고동주민센터,126.9948813029,37.5203840049,버스정류장
3274,동빙고동,126.996690677,37.5208183604,버스정류장
3275,동빙고동,126.9970390394,37.5212625565,버스정류장
3276,보광신동아아파트.삼성리버빌아파트,127.0020297105,37.5247380028,버스정류장
3277,보광동신동아아파트,127.0015149467,37.5256237907,버스정류장
3278,보광동주민센터,127.0005046107,37.5264591178,버스정류장
3279,보광동,126.9993070672,37.5280088468,버스정류장
3280,보광동,126.998896846,37.528182014,버스정류장
3281,한국폴리텍1대학,126.9967926172,37.5301959868,버스정류장
3282,한국폴리텍1대학,126.9965748167,37.5305293513,버스정류장
3283,이태원역.보광동입구,126.994213,37.5334,버스정류장
3284,이태원역.보광동입구,126.9942269972,37.5338224192,버스정류장
3285,한남역.용산노인종합복지관,127.006795706,37.5312239311,버스정류장
3286,한남역.용산노인종합복지관,127.007769858,37.5306687947,버스정류장
3287,이촌119안전센터.성촌공원,126.9529474778,37.5300799765,버스정류장
3288,이촌로입구.성촌공원앞,126.9546065451,37.5301710306,버스정류장
3289,이촌로입구.성촌공원앞,126.954351091,37.529747416,버스정류장
3290,이촌2동주민센터,126.9550639882,37.5277364382,버스정류장
3291,이촌2동주민센터,126.9548605606,37.5277028919,버스정류장
3292,이촌2동대림아파트.새남터성지,126.9563230524,37.5261753068,버스정류장
3293,이촌2동대림아파트.새남터성지,126.9561658719,37.5260292706,버스정류장
3294,서부이촌동입구,126.959495368,37.5238640509,버스정류장
3295,이촌2동강변아파트,126.9597809746,37.5234462055,버스정류장
3296,원효2동산호아파트후문,126.9500126665,37.5322600069,버스정류장
3297,청암동강변삼성아파트,126.9482434807,37.5346144292,버스정류장
3298,청암동강변삼성아파트,126.949323,37.534015,버스정류장
3299,원효2동산호아파트,126.9505415559,37.5330177683,버스정류장
3300,원효2동산호아파트,126.9508277689,37.5331088986,버스정류장
3301,원효로풍전아파트,126.9535225314,37.5321286462,버스정류장
3302,원효로풍전아파트,126.9545135613,37.5323687724,버스정류장
3303,원효풍전아파트,126.9559182022,37.532742142,버스정류장
3304,원효2동주민센터,126.9513961673,37.5344941039,버스정류장
3305,산천동리버힐삼성아파트,126.9511923413,37.5345003443,버스정류장
3306,산천동.성심여중고후문,126.9536425118,37.5353203855,버스정류장
3307,산천동.성심여중고후문,126.9533822284,37.5354081306,버스정류장
3308,신창동세방아파트,126.954957565,37.5357083247,버스정류장
3309,신창동세방아파트,126.9549471079,37.5358300537,버스정류장
3310,남이장군사당,126.9579937738,37.5366590687,버스정류장
3311,남이장군사당,126.9575932164,37.5367544611,버스정류장
3312,용문시장.용문동새마을금고,126.9595337638,37.5370716239,버스정류장
3313,용문시장.용문동새마을금고,126.9591968331,37.5371492138,버스정류장
3319,순천향병원입구,127.0067505734,37.5326305473,버스정류장
3320,남산서울타워,126.9911947846,37.5510144684,버스정류장
3321,청심경로당,126.9506907463,37.5338879189,버스정류장
3322,삼성테마트,126.9503849242,37.5337466904,버스정류장
3323,서빙고동금호베스트빌,126.9909910111,37.5226137862,버스정류장
3324,한남동하이페리온,127.0055474264,37.5278439771,버스정류장
3325,서빙고역1번출구,126.9894855098,37.5200345091,버스정류장
3326,문배동이안아파트앞,126.971060418,37.5388699959,버스정류장
3327,갈월동.숙대입구역10번출구,126.9716591639,37.5463858567,버스정류장
3328,삼각지역11번출구.전쟁기념관,126.974548,37.536204,버스정류장
3330,숙대입구,126.9705229419,37.5445305498,버스정류장
3331,원효대교북단,126.9556102561,37.5321383559,버스정류장
3332,문배동이안아파트앞,126.9707994501,37.5383644982,버스정류장
3334,순천향병원입구,127.0069961164,37.532694511,버스정류장
3335,숙명여대입구,126.9696434774,37.5448844577,버스정류장
3336,서빙고초등학교,126.9906099662,37.5208412941,버스정류장
3338,한강대교스카이스위트,126.9608161519,37.5213307725,버스정류장
3339,한강대교전망카페,126.9613434997,37.5212359951,버스정류장
3340,노들섬,126.9586051825,37.5175161768,버스정류장
3341,노들섬,126.959037665,37.5173638437,버스정류장
3342,용암초등학교.이태원2동주민센터,126.990733,37.544673,버스정류장
3343,용암초등학교.이태원2동주민센터,126.9909320571,37.5448496669,버스정류장
3344,효창공원삼거리.윤봉길의사등묘역,126.9638368968,37.5446070869,버스정류장
3345,서울역공항철도15번출구,126.9688467509,37.5530779085,버스정류장
3346,용산꿈나무종합타운,126.9672402984,37.538486933,버스정류장
3347,남산도서관.용산도서관,126.9818461928,37.552343667,버스정류장
3500,하얏트호텔,126.9969932623,37.5406603781,버스정류장
3501,한신아파트,126.9866957386,37.5389827262,버스정류장
3502,순천향병원,127.0048157354,37.5332487951,버스정류장
3503,용암경로당입구,126.9869183825,37.540596615,버스정류장
3504,한남오거리,127.0066566991,37.5330901125,버스정류장
3505,가야랑앞,126.9936040739,37.5401952774,버스정류장
3506,용암한신아파트,126.987435288,37.5420771725,버스정류장
3508,효창공원후문,126.9608920893,37.5470688427,버스정류장
3509,디지텍고등학교앞,126.9916260429,37.5398031767,버스정류장
3510,우리들가정의원,126.9877949646,37.5432315144,버스정류장
3511,도원삼성래미안아파트101동앞,126.9562320809,37.5390685906,버스정류장
3512,성도약국,126.9895541036,37.5394506828,버스정류장
3513,남산교회입구,126.9866471968,37.5446713415,버스정류장
3515,신애교회,126.9584869002,37.5455190385,버스정류장
3516,시장,126.9885515774,37.5389225472,버스정류장
3517,해방촌오거리,126.9851474983,37.54572995,버스정류장
3518,보광동주민센터,127.0000973012,37.5261473387,버스정류장
3519,대한노인회중앙회,126.9576286965,37.5440368054,버스정류장
3520,도원삼성래미안아파트101동앞,126.9562965631,37.5390222559,버스정류장
3521,신흥교회앞,126.9833867831,37.5447457188,버스정류장
3522,군인아파트,126.9963176555,37.526004062,버스정류장
3523,원효사.백범김구기념관,126.9585663043,37.5431401733,버스정류장
3524,녹사평역,126.9858713342,37.5350110363,버스정류장
3525,큰빛의집앞,126.9819982464,37.5445481753,버스정류장
3526,몬드리안서울이태원,126.992589,37.528596,버스정류장
3527,도원삼성래미안아파트,126.9576859474,37.5396879497,버스정류장
3529,후암동종점,126.9813662289,37.5467007949,버스정류장
3530,용산구청,126.991477,37.530573,버스정류장
3532,용산고등학교,126.9795092308,37.5461364014,버스정류장
3533,외빈차고,126.992242,37.531832,버스정류장
3534,효창공원앞역.이봉창역사울림관,126.9614323385,37.5396710223,버스정류장
3537,청화아파트,126.995387,37.531157,버스정류장
3540,용산경찰서,126.969805735,37.5410233025,버스정류장
3541,숙대역7번출구,126.9722967638,37.5434757805,버스정류장
3542,보광동삼거리,126.996811,37.530752,버스정류장
3543,중앙하이츠빌라,126.9594786383,37.5385683269,버스정류장
3544,원효우체국,126.967353845,37.538967266,버스정류장
3545,보광초등학교,126.99673,37.531373,버스정류장
3546,용문동시장.새마을금고,126.9596343248,37.5373482951,버스정류장
3550,용문동주민센터,126.9591190202,37.5381473907,버스정류장
3551,문배어린이공원,126.9697251251,37.5369383946,버스정류장
3552,문배어린이공원,126.9695900372,37.5371431249,버스정류장
3561,신용산역,126.9674544999,37.5299166547,버스정류장
3564,용산우체국,126.9703153999,37.531376286,버스정류장
3565,숙대역5번출구,126.9725114972,37.54403813,버스정류장
3567,삼각지역,126.9732731006,37.5345065492,버스정류장
3568,갈월동,126.9720930552,37.5463241118,버스정류장
3569,보광초등학교후문앞,126.995635,37.533162,버스정류장
3571,동자경로당,126.9741955461,37.5502867059,버스정류장
3572,이태원역앞,126.9957,37.534339,버스정류장
3573,녹사평역.용산구청,126.9871837649,37.5351395786,버스정류장
3574,후암시장,126.9768043541,37.5500664789,버스정류장
3577,후암동주민센터앞,126.9777057507,37.5483644838,버스정류장
3578,제일기획,126.998418,37.53495,버스정류장
3579,대성교회,126.9884520307,37.5386999666,버스정류장
3580,용산고,126.9789524928,37.5459083263,버스정류장
3581,성도약국,126.9894307824,37.5392776612,버스정류장
3582,후암동종점,126.9813594882,37.5465016517,버스정류장
3583,디지텍고등학교앞,126.9918569023,37.5397139842,버스정류장
3584,큰빛의집앞,126.9819077271,37.5444832826,버스정류장
3585,가야랑앞,126.9937523252,37.5400889559,버스정류장
3586,신흥교회앞,126.983387942,37.5446231699,버스정류장
3588,해방촌오거리,126.9853964787,37.5457029481,버스정류장
3589,남산교회입구,126.9866223212,37.5445505919,버스정류장
3590,우리들가정의원,126.9876591627,37.5432423134,버스정류장
3591,용암한신아파트,126.9874137344,37.5423880484,버스정류장
3592,용암경로당입구,126.9869601654,37.5410985304,버스정류장
3593,한신아파트,126.986557682,37.5389881171,버스정류장
3594,갑을빌딩,126.9720388292,37.5490958683,버스정류장
3595,리버힐삼성아파트후문,126.9487207623,37.5349462412,버스정류장
3596,만리시장입구,126.9630412782,37.5515678017,버스정류장
3597,배문중고등학교,126.9636168092,37.5503749309,버스정류장
3598,청파초등학교,126.9633754859,37.5485834792,버스정류장
3648,동부이촌동,126.9726729953,37.520139253,버스정류장
3649,강촌APT,126.9761942244,37.5191000398,버스정류장
3680,남산그랜드하얏트호텔,126.9973678608,37.5398259716,버스정류장
3688,청파초등학교,126.9635056923,37.5484699816,버스정류장
3699,배문중고교,126.963728852,37.550381273,버스정류장
3700,만리시장입구,126.9631453007,37.5517759871,버스정류장
3709,청암자이아파트,126.9485683053,37.5348672272,버스정류장
3710,신동아APT,126.9853623627,37.5175986035,버스정류장
3728,신동아APT,126.9853034727,37.5179220911,버스정류장
3729,강촌APT,126.9773129069,37.5189057287,버스정류장
3730,동부이촌동,126.9718175157,37.5206779095,버스정류장
3732,이촌동두산위브트레지움,126.9659919434,37.521493673,버스정류장
3733,이촌동두산위브트레지움,126.9675735406,37.5215283595,버스정류장
3734,이촌현대아파트.금강병원,126.9810408412,37.5177187363,버스정류장
3735,이촌현대아파트.금강병원,126.978748041,37.5185081173,버스정류장
3736,한남역,127.0067323413,37.5312068138,버스정류장
3737,도원삼성래미안아파트단지내,126.9553881353,37.5381983039,버스정류장
3742,한남동주민센터,127.000603,37.534102,버스정류장
3743,용산CJ나인파크,126.9695530125,37.5358706647,버스정류장
3744,용산e편한세상,126.9672212005,37.5344621995,버스정류장
3748,이집트대사관.한남더힐아파트,127.011274684,37.535256866,버스정류장
3749,이집트대사관.한남더힐아파트,127.0114310392,37.5362408844,버스정류장
3750,한남역,127.0077438254,37.5305849943,버스정류장
3751,한남동,127.008573227,37.5337569266,버스정류장
3752,한남동,127.0085656637,37.533963153,버스정류장
3753,필리핀대사관,126.995093255,37.5406999627,버스정류장
3754,필리핀대사관,126.9951600296,37.5405702075,버스정류장
3900,전쟁기념관,126.9734851953,37.5384014653,버스정류장
3901,용산역,126.964794,37.527598,버스정류장
3902,국립중앙박물관,126.9785496415,37.5208476177,버스정류장
3903,이태원,126.9904416929,37.5343385918,버스정류장
3904,남산서울타워,126.9909861872,37.5511419911,버스정류장
3905,하얏트호텔,126.9972013482,37.5408918783,버스정류장
4001,답십리역사거리,127.0543961703,37.5654496127,버스정류장
4002,청년회의소.서울새활용플라자,127.0604823356,37.5620353607,버스정류장
4003,장한평역,127.0660926512,37.5611899215,버스정류장
4101,상왕십리역,127.0290748599,37.5643358035,버스정류장
4102,상왕십리역,127.0286812869,37.5646936321,버스정류장
4103,왕십리센트라스아파트,127.0248051787,37.5652129966,버스정류장
4104,왕십리교회,127.0236794054,37.566630044,버스정류장
4105,뉴타운아파트,127.0269697789,37.5648723959,버스정류장
4106,청계벽산아파트.텐즈힐아파트,127.0303755149,37.5688584755,버스정류장
4107,청계벽산아파트.텐즈힐아파트,127.0300384029,37.5679598186,버스정류장
4108,왕십리도선동주민센터,127.0246446774,37.5676164369,버스정류장
4109,왕십리2동주민센터,127.0332625935,37.56244961,버스정류장
4110,코스모타워.서울신용보증재단성동지점,127.032902865,37.5629822568,버스정류장
4112,성동구청,127.0359164214,37.5631265853,버스정류장
4113,상왕십리역,127.030223,37.56493,버스정류장
4114,상왕십리역.센트라스아파트,127.0299768448,37.5658601065,버스정류장
4115,신금호역4번출구,127.0205310813,37.5541428107,버스정류장
4116,마장동주민센터,127.04457376,37.5673234964,버스정류장
4117,마장역,127.0422829487,37.5655987334,버스정류장
4118,성동노인복지관,127.0415861333,37.5649375925,버스정류장
4119,마장축산물시장,127.0380207293,37.5709505267,버스정류장
4120,마장축산물시장,127.0375113528,37.5702590064,버스정류장
4121,도선사거리,127.0369539875,37.5670208209,버스정류장
4122,도선사거리,127.0364845717,37.5666487791,버스정류장
4123,마장동금호아파트,127.041859032,37.5630713327,버스정류장
4124,마장동금호아파트,127.0415811922,37.5621577226,버스정류장
4125,한양대부속고등학교,127.0414131621,37.5609241011,버스정류장
4126,한양대부속고등학교,127.0411546041,37.5603881249,버스정류장
4127,한양대앞.한양시장,127.0409668475,37.5585823987,버스정류장
4128,한양대앞,127.0406535419,37.5585254607,버스정류장
4129,한양대정문,127.0431286432,37.5563883665,버스정류장
4130,한양대정문앞,127.0431384444,37.5569939038,버스정류장
4131,무학여고앞,127.0342332122,37.5578540014,버스정류장
4132,무학여고,127.0338672615,37.5578953118,버스정류장
4133,왕십리역,127.0361920228,37.5599473134,버스정류장
4134,왕십리역,127.0362669183,37.5603365628,버스정류장
4135,왕십리역10번출구,127.0346872504,37.5607235444,버스정류장
4136,행당1동주민센터,127.0384039964,37.5582671772,버스정류장
4137,서울숲삼부아파트,127.0379492742,37.5587230766,버스정류장
4138,응봉동주민센터,127.0335007802,37.5533989566,버스정류장
4139,응봉동주민센터,127.0334386918,37.5537612141,버스정류장
4140,응봉사거리,127.0344580408,37.5552918803,버스정류장
4141,응봉동현대아파트,127.0305745164,37.5497324573,버스정류장
4142,응봉동현대아파트,127.0309,37.550222,버스정류장
4143,대현산배수지공원입구,127.0200356974,37.5564740008,버스정류장
4145,신금호역,127.020117586,37.5556051708,버스정류장
4146,신금호역,127.0199214015,37.5556768698,버스정류장
4147,금호고등학교,127.0219550538,37.5534780746,버스정류장
4148,금호고등학교.금호자이1차아파트입구,127.0229328751,37.5531077251,버스정류장
4149,금호동벽산아파트,127.0256791281,37.5511643996,버스정류장
4150,래미안하이리버아파트,127.0254234439,37.5514582119,버스정류장
4151,금호사거리,127.02606314,37.5488791385,버스정류장
4152,금호사거리,127.0259773298,37.5494639682,버스정류장
4153,금남시장앞.백범학원터,127.0218686315,37.5480852238,버스정류장
4154,금남시장앞.백범학원터,127.022487755,37.5482887551,버스정류장
4155,금호역,127.0162669926,37.5477283731,버스정류장
4156,금호역,127.0154795051,37.5485477051,버스정류장
4157,금옥초등학교앞,127.0198923146,37.5469673139,버스정류장
4158,금옥초등학교앞,127.0182356475,37.5462572048,버스정류장
4159,힐스테이트서울숲리버아파트,127.0270575925,37.5478877101,버스정류장
4160,삼성래미안아파트앞,127.0275127211,37.5483498668,버스정류장
4161,옥수삼성아파트.래미안옥수리버젠,127.0148475565,37.5436204852,버스정류장
4162,옥수삼성아파트.래미안옥수리버젠,127.0146552078,37.5438034317,버스정류장
4163,미타사입구,127.0168373163,37.5448556208,버스정류장
4164,래미안옥수리버젠.옥수중앙교회,127.0148446166,37.5459155767,버스정류장
4165,래미안옥수리버젠.옥수중앙교회,127.014698,37.545782,버스정류장
4166,옥수파크힐스아파트앞,127.0130389488,37.5471160945,버스정류장
4167,옥수파크힐스아파트앞,127.0130159995,37.5470204344,버스정류장
4168,옥수동회차지,127.012436,37.549361,버스정류장
4169,옥정중학교입구,127.011302745,37.5409040726,버스정류장
4170,옥정중학교입구,127.0109994635,37.5408770683,버스정류장
4171,성수1가1동새마을금고,127.0495477418,37.5382204647,버스정류장
4172,성수1가새마을금고,127.0495105089,37.5383306996,버스정류장
4173,천주교성수동성당앞,127.0461393549,37.5393704675,버스정류장
4174,천주교성수동성당앞,127.0460740289,37.539305526,버스정류장
4175,뚝도아리수정수센터.수도박물관,127.044202626,37.5409772406,버스정류장
4176,뚝도아리수정수센터.수도박물관,127.04399,37.541407,버스정류장
4177,서울숲역2번출구,127.044692,37.542958,버스정류장
4178,서울숲역3번출구,127.0444980594,37.5430629438,버스정류장
4179,성동구민종합체육센터,127.0448960891,37.5460719745,버스정류장
4180,성동구민종합체육센터,127.0445340491,37.5464979897,버스정류장
4181,성원중학교후문,127.0503149591,37.5399724321,버스정류장
4182,성원중학교후문,127.050759594,37.5400388326,버스정류장
4183,경일초등학교입구,127.0463723692,37.5410800235,버스정류장
4184,경일초등학교입구,127.0460161257,37.5413797453,버스정류장
4185,성동교남단.서울숲리버포레,127.0444566298,37.5495163646,버스정류장
4186,성동교남단.서울숲리버포레,127.0439627696,37.5505075164,버스정류장
4187,상원,127.0460506002,37.5514371326,버스정류장
4188,상원,127.0466618972,37.551747737,버스정류장
4189,영동대교북단,127.0607392694,37.5369424226,버스정류장
4190,경수중학교,127.0624288917,37.5397602612,버스정류장
4191,성수119안전센터,127.060132085,37.5373416869,버스정류장
4192,성수119안전센터,127.059997,37.537532,버스정류장
4193,경수중학교,127.0570118184,37.5381650347,버스정류장
4194,경수중학교,127.0572982039,37.5382865442,버스정류장
4195,뚝도시장,127.0553996133,37.5385866142,버스정류장
4196,뚝도시장,127.0552587843,37.5388507297,버스정류장
4197,성원중.성수2가제1동주민센터,127.0534264696,37.5390939396,버스정류장
4198,성원중.성수2가제1동주민센터,127.052845,37.539511,버스정류장
4199,서울숲지구대앞,127.0523417008,37.537867716,버스정류장
4200,서울숲지구대앞,127.0522588868,37.5380509168,버스정류장
4201,뚝도시장구길,127.05527,37.537192,버스정류장
4202,뚝도시장구길,127.0549267531,37.5375520694,버스정류장
4203,성수동진주타운,127.0574889191,37.536617437,버스정류장
4204,성수동진주타운,127.0574923078,37.536759089,버스정류장
4205,성덕정길입구,127.059982,37.536356,버스정류장
4206,성덕정길입구,127.06006565,37.5364382069,버스정류장
4207,화양사거리,127.0666629344,37.5472776746,버스정류장
4208,성수사거리.성수초등학교,127.0641612973,37.5428218897,버스정류장
4209,서울효사랑병원,127.0632745484,37.5412636389,버스정류장
4210,성수2가3동주민센터,127.0553883888,37.5496243675,버스정류장
4211,제인병원,127.0568366874,37.5493511273,버스정류장
4212,성동세무서앞,127.0621853946,37.5479946812,버스정류장
4213,성동세무서,127.064337342,37.548239128,버스정류장
4214,송정동서울숲아이파크,127.0692473283,37.551825481,버스정류장
4215,송정동건영아파트,127.07115,37.555205,버스정류장
4216,군자교남단,127.0724414557,37.5575371596,버스정류장
4217,신답역,127.0475025717,37.570211077,버스정류장
4218,용답동로데오거리.답십리역,127.0539458148,37.5657033305,버스정류장
4221,서울교통공사.서울새활용플라자,127.0569134234,37.5620495039,버스정류장
4222,뚝섬서울숲,127.036601198,37.544618041,버스정류장
4223,뚝섬서울숲,127.0363946274,37.5456718598,버스정류장
4226,사근동하이츠아파트앞,127.0486060331,37.5611984155,버스정류장
4227,사근동하이츠아파트앞,127.0486881757,37.561306176,버스정류장
4228,사근동주민센터,127.0456489178,37.5608144197,버스정류장
4229,사근동주민센터,127.0457112392,37.5609315252,버스정류장
4230,사근고개,127.0445908781,37.5611617078,버스정류장
4231,사근고개,127.0445101518,37.5612555615,버스정류장
4232,한양지구대,127.0420211147,37.5602143513,버스정류장
4233,한양지구대,127.0419242341,37.5602445802,버스정류장
4234,사근동벽산아파트,127.0499269056,37.5601892041,버스정류장
4236,뚝섬역8번출구,127.0455095172,37.5476928251,버스정류장
4237,뚝섬역2번출구,127.046846,37.547575,버스정류장
4238,뚝섬역5번출구,127.0492754339,37.5464803389,버스정류장
4239,뚝섬역4번출구,127.0492756444,37.5468001934,버스정류장
4240,성수역1번출구,127.0538293527,37.5454196769,버스정류장
4241,SK테크노빌딩앞,127.050228,37.545888,버스정류장
4242,SK테크노빌딩앞,127.0500259308,37.545769848,버스정류장
4243,경동초등학교입구,127.0494809367,37.5437724292,버스정류장
4244,경동초등학교입구,127.049212934,37.5433912967,버스정류장
4245,경일초등학교앞,127.0482363415,37.5407684319,버스정류장
4246,경일초등학교앞,127.0481685479,37.540919377,버스정류장
4247,한양여대앞,127.0503,37.55951,버스정류장
4252,도선고등학교.꽃재교회,127.0277827978,37.5670932118,버스정류장
4253,성수역4번출구,127.054582,37.544788,버스정류장
4254,리버하우스,127.0510060889,37.5509002648,버스정류장
4255,리버하우스,127.0506905447,37.5512302013,버스정류장
4256,성수사거리,127.062352,37.542562,버스정류장
4257,성수사거리,127.0623621248,37.5427980761,버스정류장
4258,성동제일새마을금고,127.0471032979,37.560811596,버스정류장
4259,성동제일새마을금고,127.0473012813,37.560884127,버스정류장
4261,청계9가.텐즈힐2단지정문앞,127.0255654313,37.570749453,버스정류장
4264,뚝섬서울숲,127.0375618762,37.5434527836,버스정류장
4265,서울숲1번출입구,127.0426958799,37.5422230617,버스정류장
4266,서울숲1번출입구,127.042974358,37.5419781098,버스정류장
4267,용답휴식공원,127.0480538231,37.5693121111,버스정류장
4268,용답휴식공원,127.0479373245,37.5695541839,버스정류장
4269,성수2가3동주민센터,127.0542376417,37.5504251323,버스정류장
4270,극동그린아파트앞,127.0113916813,37.5420008413,버스정류장
4271,마장역,127.0430338383,37.5663469729,버스정류장
4272,행당신동아.행당푸르지오아파트,127.0340192689,37.5561408382,버스정류장
4273,숭신초등학교,127.028195858,37.5671676226,버스정류장
4275,극동아파트,127.0239338279,37.5580974527,버스정류장
4276,풍림아파트,127.0239062231,37.5591427175,버스정류장
4277,벽산아파트,127.0256885739,37.555602288,버스정류장
4278,대림아파트,127.0249260274,37.5565738309,버스정류장
4279,행당역,127.0290982639,37.557000896,버스정류장
4280,행당역,127.0287643907,37.557079373,버스정류장
4281,무학중학교,127.0330162995,37.5583911544,버스정류장
4282,극동그린아파트,127.011904958,37.5420646255,버스정류장
4286,성수동차고지,127.055682,37.535793,버스정류장
4288,성수두산위브아파트,127.0585185177,37.5365921538,버스정류장
4289,왕십리자이.신당현대아파트,127.02363,37.560847,버스정류장
4290,왕십리자이.신당현대아파트,127.024102104,37.5611519007,버스정류장
4291,성수두산위브아파트,127.058488,37.536507,버스정류장
4293,우리은행화양동지점,127.0661376875,37.548116421,버스정류장
4295,황학교.텐즈힐몰,127.0236037286,37.5700517505,버스정류장
4298,마장동주민센터,127.0446425019,37.5670632137,버스정류장
4301,왕십리광장.왕십리역7번출구,127.0368888269,37.5611283256,버스정류장
4302,왕십리광장.왕십리역4번출구,127.037133352,37.561364441,버스정류장
4303,한양대후문앞,127.0496759962,37.5556432919,버스정류장
4304,왕십리도선동주민센터,127.0244126998,37.5678169566,버스정류장
4305,한양여대앞,127.050619338,37.5592243864,버스정류장
4306,행당중학교,127.043024,37.553781,버스정류장
4307,살곶이체육공원앞,127.05101917,37.5563590432,버스정류장
4500,송정동현대아이파크아파트,127.0686200823,37.5521871167,버스정류장
4501,극동아파트5동,127.0110790155,37.5431595377,버스정류장
4502,대우아파트관리실,127.0199839497,37.5462141244,버스정류장
4504,신금호역,127.0204908209,37.5545931778,버스정류장
4505,옥수역.한강버스선착장,127.016845,37.541382,버스정류장
4506,송정동자치회관,127.0687627665,37.5508854915,버스정류장
4507,대우아파트후문,127.0216589278,37.5469390691,버스정류장
4509,금호1가동주민센터,127.02219553,37.5551290207,버스정류장
4510,왕십리민자역사,127.0378535089,37.5618426928,버스정류장
4511,무쇠막,127.0246947943,37.545277754,버스정류장
4512,송정어린이집,127.0677474298,37.5490025833,버스정류장
4514,대경생활과학고등학교,127.017537043,37.5559714265,버스정류장
4515,금북초등학교.e편한세상금호105동,127.0237361041,37.5555378179,버스정류장
4516,무학여고,127.0339123541,37.5574916088,버스정류장
4517,힐스테이트서울숲리버,127.0253856278,37.5467445912,버스정류장
4518,성수SKV1센터1동,127.0655811779,37.545816932,버스정류장
4519,극동아파트상가,127.0121008716,37.5429197459,버스정류장
4520,금호4가동주민센터.대도빌딩,127.0225635106,37.5480526537,버스정류장
4521,화단삼거리,127.0198766785,37.5484174167,버스정류장
4522,금호어린이집,127.0186201668,37.5567335018,버스정류장
4523,논골.금호벽산아파트.성동공유센터,127.0253044367,37.5555394907,버스정류장
4524,행당서울숲푸르지오상가앞,127.0338926682,37.5556173736,버스정류장
4525,법학학술정보관,127.0485750382,37.5570403271,버스정류장
4526,성수이비즈센터,127.0630583777,37.5465773977,버스정류장
4527,한남하이츠아파트,127.0115923113,37.5400543105,버스정류장
4528,금호사거리,127.0252690969,37.5480015945,버스정류장
4529,금호산입구,127.0195736658,37.5567220851,버스정류장
4530,한진아파트후문,127.0269971479,37.5560183016,버스정류장
4531,신동아아파트후문,127.032693675,37.554894681,버스정류장
4532,올림픽체육관맞은편,127.0492908049,37.5569341632,버스정류장
4533,경수중학교입구,127.0600882973,37.5435110445,버스정류장
4535,제일감리교회,127.0269036684,37.547866119,버스정류장
4536,신금호역,127.019636929,37.5543806178,버스정류장
4537,제3법학관,127.0486367607,37.556233909,버스정류장
4538,행당서울숲푸르지오109동앞,127.0317164122,37.5544534388,버스정류장
4539,벽산아파트정문,127.0252791565,37.5526575016,버스정류장
4540,성수역2번출구,127.0576390687,37.5442691048,버스정류장
4541,옥수종합사회복지관,127.0128519457,37.5408804856,버스정류장
4542,응봉동현대아파트,127.0307682168,37.5498025299,버스정류장
4544,행당2동주민센터,127.0306537631,37.5577375973,버스정류장
4545,응봉경로당앞,127.031642249,37.5526279318,버스정류장
4546,금호119안전센터,127.0247307916,37.5541870617,버스정류장
4547,경동초등학교입구,127.0511563146,37.5458938897,버스정류장
4548,옥수삼성아파트,127.0139484516,37.540635263,버스정류장
4549,현대공업사앞,127.0325677907,37.549950728,버스정류장
4550,두산상가후문.106동,127.0167386956,37.5491853986,버스정류장
4551,중앙병원,127.0193175559,37.5519612784,버스정류장
4552,무학중학교.무학여고,127.0331282771,37.5582100032,버스정류장
4553,만물상회앞,127.0312234362,37.552827269,버스정류장
4554,논골사거리,127.0248124231,37.5553150263,버스정류장
4556,응봉초등학교.대림아파트,127.0334306978,37.5510678445,버스정류장
4557,한신아파트,127.0192957404,37.5507538149,버스정류장
4558,올림픽체육관앞,127.0496303854,37.5570151108,버스정류장
4559,상봉노인정앞,127.030283193,37.5528739435,버스정류장
4560,논골신협.대림아파트후문,127.0245743869,37.5577029753,버스정류장
4562,옥수삼성아파트,127.0143207799,37.5407532621,버스정류장
4563,응봉역.광희중,127.0344339086,37.5520425408,버스정류장
4564,우리은행.백범학원터,127.0211726304,37.5480069051,버스정류장
4566,금호공원,127.0195750088,37.5496769604,버스정류장
4567,대현산체육관입구,127.0298541873,37.5530799025,버스정류장
4568,한양대학교경영대학,127.0485297971,37.5570853955,버스정류장
4570,옥수종합사회복지관,127.0132276487,37.5408867518,버스정류장
4572,대우아파트입구,127.0191632324,37.5459834381,버스정류장
4573,원형화단,127.0194898441,37.548592957,버스정류장
4575,금봉어린이집.또또와마트,127.0288090654,37.5529061904,버스정류장
4576,한양대병원후문,127.0419651568,37.5600051066,버스정류장
4577,경수중학교입구,127.0596206188,37.5433629833,버스정류장
4578,옥정중학교,127.0113322323,37.5413329917,버스정류장
4579,응봉사거리,127.0345427336,37.5548674402,버스정류장
4582,천은교회.성동청소년상담복지센터,127.0267906941,37.554695676,버스정류장
4583,극동아파트상가,127.0123679427,37.5429116083,버스정류장
4584,무학여고,127.0342554186,37.5577185854,버스정류장
4585,한전입구,127.0351185322,37.5662652006,버스정류장
4586,논골입구.성동공유센터,127.0255715552,37.5555496417,버스정류장
4587,극동아파트7동,127.0127539602,37.5436189277,버스정류장
4588,성동보건소,127.0331862828,37.566494637,버스정류장
4589,행당역.대림아파트정문,127.0286715654,37.5570496595,버스정류장
4590,청계벽산아파트,127.0303705362,37.568262437,버스정류장
4591,논골.e편한세상금호114동,127.0246041221,37.55519162,버스정류장
4593,코스모타워,127.0332903821,37.5627939863,버스정류장
4594,화단앞,127.019653956,37.5486244682,버스정류장
4595,성동사회복지관.청계천박물관,127.0334777845,37.5703034715,버스정류장
4596,금호119안전센터,127.0245723767,37.5542636796,버스정류장
4597,왕약국,127.0655472648,37.5483411874,버스정류장
4599,금호공원,127.0197741925,37.5496507955,버스정류장
4600,성동구도시관리공단.서울시시설관리공단,127.0368611826,37.5718289131,버스정류장
4602,e편한세상금호117동,127.0246821893,37.5526576279,버스정류장
4603,왕십리자이.신당현대아파트,127.0236902472,37.5608470716,버스정류장
4615,중앙슈퍼,127.0665317949,37.5495156648,버스정류장
4648,한신아파트,127.0194077879,37.550758302,버스정류장
4651,금호고등학교,127.0235529542,37.5530983943,버스정류장
4658,극동.풍림아파트,127.0236410045,37.5590448945,버스정류장
4659,GS25,127.0671617628,37.5503046673,버스정류장
4667,중앙병원앞,127.019471524,37.5521279557,버스정류장
4668,도선동사거리,127.0365326655,37.5667675811,버스정류장
4669,논골신협.대림아파트후문,127.0245188619,37.5575119549,버스정류장
4670,송정동자치회관입구,127.0678257351,37.5511350971,버스정류장
4671,성동구청,127.0360410344,37.563354049,버스정류장
4672,논골사거리,127.0247742087,37.5561260191,버스정류장
4674,신금호역,127.0197856168,37.5543355851,버스정류장
4677,성동중앙교회.벽산아파트정문,127.0248775221,37.5530067236,버스정류장
4679,무학중학교.무학여고,127.0332891007,37.5584226161,버스정류장
4680,천은교회.성동청소년상담복지센터,127.0266661363,37.5545919447,버스정류장
4684,금호어린이집,127.0182314515,37.5567429983,버스정류장
4685,행당2동주민센터,127.0304206318,37.5578295691,버스정류장
4686,금봉어린이집.또또와마트,127.028794376,37.5526423775,버스정류장
4691,대경생활과학고등학교,127.0175178242,37.5560687475,버스정류장
4696,대현산체육관입구,127.0297135329,37.5529629395,버스정류장
4697,GS주유소,127.0251253545,37.546811328,버스정류장
4698,대림아파트후문,127.026932687,37.5561715023,버스정류장
4699,상봉노인정앞,127.0302182436,37.5526731081,버스정류장
4700,서울숲푸르지오아파트정문,127.0243937555,37.5452561903,버스정류장
4701,대림상가,127.0344662233,37.553878282,버스정류장
4702,충북상회,127.0310093901,37.5527922994,버스정류장
4706,서울숲푸르지오아파트후문,127.0228036345,37.5435444033,버스정류장
4721,무학여고,127.0338768271,37.5581244034,버스정류장
4722,무학여고,127.0342446422,37.5580995199,버스정류장
4723,응봉사거리,127.0340901941,37.5553018991,버스정류장
4724,응봉사거리,127.0344918986,37.5550801133,버스정류장
4739,응봉역.광희중,127.0344034229,37.5522011423,버스정류장
4740,응봉경로당앞,127.0316939654,37.5523884273,버스정류장
4741,금호초등학교,127.0194943061,37.5526884328,버스정류장
4742,응봉초등학교.대림아파트,127.0331680056,37.5508020956,버스정류장
4743,행당서울숲푸르지오109동앞,127.031801204,37.5543861249,버스정류장
4744,현대공업사앞,127.0324416568,37.5501059259,버스정류장
4745,신동아아파트후문,127.0328358347,37.5546877083,버스정류장
4746,신동아아파트,127.0300981967,37.5497675599,버스정류장
4748,행당서울숲푸르지오상가앞,127.0340186862,37.5555729913,버스정류장
4749,삼성래미안아파트,127.0275591319,37.5483750866,버스정류장
4750,금호사거리,127.0250613034,37.5481765011,버스정류장
4751,금남시장앞.백범학원터,127.0216479967,37.5482744945,버스정류장
4753,왕십리광장.왕십리역7번출구,127.0365162885,37.5610465475,버스정류장
4754,두산상가후문.106동,127.0166850915,37.5493384196,버스정류장
4755,극동아파트7동,127.0126657069,37.543720761,버스정류장
4756,두산아파트113동,127.016075787,37.5505884957,버스정류장
4757,두산아파트109동,127.0166306849,37.54988947,버스정류장
4758,극동아파트4동,127.011588323,37.5435316415,버스정류장
4759,극동아파트4동,127.0116845111,37.5435055002,버스정류장
4760,두산아파트109동,127.0167969818,37.5499149882,버스정류장
4761,두산아파트115동,127.0159606783,37.5510558771,버스정류장
4762,금호역,127.0169908982,37.5485492158,버스정류장
4763,금호역.두산상가경비실,127.0166207533,37.5486130124,버스정류장
4764,금호역,127.0164272951,37.5484240169,버스정류장
4765,금호역.3호선,127.0166253219,37.5482942315,버스정류장
4766,화단삼거리,127.0196278194,37.5482189796,버스정류장
4767,두산아파트113동,127.0162396281,37.5507879397,버스정류장
4770,벽산아파트501동앞,127.0254385471,37.5548866966,버스정류장
4771,벽산아파트505동앞,127.0262518161,37.5544010055,버스정류장
4772,벽산아파트111동앞,127.0267897943,37.5530630754,버스정류장
4773,벽산아파트206동앞,127.027267386,37.5521525445,버스정류장
4774,벽산아파트202동앞,127.027346896,37.5514902482,버스정류장
4775,벽산하이피아상가앞,127.0256432644,37.5521961609,버스정류장
4776,우리은행.백범학원터,127.0211246097,37.5482659508,버스정류장
4780,행당푸르지오아파트,127.0340034675,37.556239062,버스정류장
4781,왕십리역,127.036979,37.561097,버스정류장
4782,옥정중학교,127.0113005335,37.5412473905,버스정류장
4783,옥정중학교,127.0109934781,37.5409744546,버스정류장
4784,옥수삼성아파트,127.0148090773,37.5436087758,버스정류장
4785,옥수삼성아파트,127.014614465,37.5437908214,버스정류장
4786,금옥초등학교.금호대우아파트,127.0189290928,37.546474573,버스정류장
4787,금옥초등학교.금호대우아파트,127.018651851,37.5465899573,버스정류장
4788,금호사거리,127.0241852708,37.5479784428,버스정류장
4789,금호사거리,127.0250024528,37.5481765136,버스정류장
4790,힐스테이트서울숲리버아파트,127.0269817622,37.5478769143,버스정류장
4791,금호삼성래미안,127.0275353603,37.5483615758,버스정류장
4792,응봉현대아파트,127.0307014263,37.5497628991,버스정류장
4793,응봉현대아파트,127.0309019007,37.5501304936,버스정류장
4794,응봉주민센터,127.0335211731,37.5534440055,버스정류장
4795,응봉주민센터,127.0336017817,37.5539990568,버스정류장
4800,래미안옥수리버젠아파트상가,127.0157270249,37.5443727865,버스정류장
4801,옥수동주민센터.옥수동성당,127.0140191688,37.5436061689,버스정류장
4802,국민은행,127.0122219232,37.5426971627,버스정류장
4803,국민은행,127.0127560803,37.5427782048,버스정류장
4804,옥수동주민센터.옥수동성당,127.0136716778,37.5432376614,버스정류장
4805,삼성아파트정문,127.015293478,37.5438267793,버스정류장
4807,성동노인종합복지관,127.0414402566,37.5652097737,버스정류장
4808,중앙하이츠아파트,127.0389001215,37.5652526914,버스정류장
4809,민자역사후문,127.0383642631,37.5635492836,버스정류장
4811,금호1가동주민센터,127.0208123009,37.5547282857,버스정류장
4812,금호정형외과,127.0204578591,37.5540867685,버스정류장
4814,금호고등학교앞,127.0233929107,37.5529799549,버스정류장
4815,벽산하이피아상가,127.026001811,37.5519671275,버스정류장
4816,벽산노인정,127.0268504902,37.551058711,버스정류장
4817,벽산아파트107동,127.0274313269,37.5516875417,버스정류장
4818,벽산아파트109동,127.0274448395,37.5526114413,버스정류장
4819,벽산아파트505동,127.0263706309,37.5543216827,버스정류장
4820,벽산아파트501동,127.0255887508,37.5550078999,버스정류장
4821,광희중학교.응봉역,127.035058499,37.5519110306,버스정류장
4822,한신아파트후문,127.0370729773,37.5537403049,버스정류장
4823,한신아파트정문,127.035382546,37.5548347521,버스정류장
4824,민자역사후문,127.0386950898,37.56308291,버스정류장
4825,중앙하이츠아파트,127.0384486598,37.5650542998,버스정류장
4826,삼성래미안아파트,127.0402755817,37.565494021,버스정류장
4827,금북초등학교입구,127.0236161649,37.5556558853,버스정류장
4828,대현산배수지공원앞,127.0220574589,37.5551777057,버스정류장
4829,선영약국,127.0306171809,37.5667721811,버스정류장
4830,텐즈힐아파트101동.115동,127.029279632,37.5669824288,버스정류장
4831,숭신초등학교.도선고등학교앞,127.0271676387,37.5673296859,버스정류장
4832,왕십리도선동주민센터,127.0259157424,37.5677084261,버스정류장
4833,텐즈힐아파트120동.213동앞,127.0260063322,37.56912306,버스정류장
4834,왕십리중앙교회,127.026707232,37.5700015585,버스정류장
4836,청계현대아파트,127.0430256561,37.5701654913,버스정류장
4837,청계장원아파트,127.044748559,37.5693291776,버스정류장
4839,마장2교사거리,127.0454636903,37.5679751585,버스정류장
4840,마장2교사거리,127.0456033009,37.5681827453,버스정류장
4842,청계장원아파트,127.0448455263,37.5693427411,버스정류장
4843,옥수교회,127.016009017,37.5452371461,버스정류장
4844,텐즈힐아파트107동앞,127.0285144783,37.5695685824,버스정류장
4845,응봉동현대아파트,127.0309380064,37.5498619578,버스정류장
4846,논골.대림아파트107동.금호동벽산아파트,127.0249544273,37.5558963995,버스정류장
4847,옥수역5.6번출구.한강버스선착장,127.017002,37.541854,버스정류장
4848,서울숲푸르지오아파트,127.0237432904,37.5450150995,버스정류장
4852,경일중고등학교,127.049131,37.542316,버스정류장
4854,이마트.서울숲힐스테이트아파트,127.052284,37.540121,버스정류장
4855,서울숲코오롱디지털타워2차,127.05399,37.541411,버스정류장
4856,서울경찰청제6기동단,127.054739,37.540076,버스정류장
4857,한라시그마밸리앞,127.05532,37.539647,버스정류장
4858,성수역3번출구,127.057061,37.543842,버스정류장
4859,서울숲코오롱디지털타워2차,127.053848,37.541461,버스정류장
4860,이마트.서울숲힐스테이트아파트,127.05257,37.540528,버스정류장
4861,현대그린아파트,127.049622,37.540523,버스정류장
4862,성수역3번출구,127.0566906693,37.5435598293,버스정류장
4863,경일중고등학교,127.04921,37.542503,버스정류장
4864,한라시그마밸리,127.0551786364,37.5399060735,버스정류장
4865,서울경찰청제6기동단,127.0547711849,37.540228157,버스정류장
4866,서울숲역,127.045146,37.543869,버스정류장
4867,성동구민종합체육센터,127.044515,37.54527,버스정류장
4868,서울숲2번출입구,127.04255,37.543527,버스정류장
4871,서울숲9번출입구,127.03755914,37.5436374894,버스정류장
4872,옥수역4번출구.한강버스선착장,127.0176124993,37.5418118508,버스정류장
4873,성수대교북단교차로,127.0355169956,37.5442958508,버스정류장
4876,마장역,127.0426522462,37.5661140833,버스정류장
4877,마장역,127.0423947542,37.5656474129,버스정류장
4878,옥정초등학교,127.015419565,37.5408892401,버스정류장
4879,e편한세상금호109동,127.0218758358,37.5534825943,버스정류장
4883,왕십리자이아파트107동,127.025641,37.559577,버스정류장
4884,왕십리풍림아이원아파트102동,127.026382,37.559993,버스정류장
4885,금호베스트빌아파트노인정앞,127.025069533,37.5618733218,버스정류장
4887,응봉역.광희중학교,127.0352978775,37.5518786122,버스정류장
4888,대림강변타운아파트A상가,127.0357171978,37.5547901705,버스정류장
4889,리버그린동아아파트정문,127.0375237372,37.5534932401,버스정류장
4890,서울숲리버뷰자이아파트제2주차장,127.0394073408,37.5561652703,버스정류장
4891,서울숲리버뷰자이아파트제2주차장,127.0392797867,37.5557215716,버스정류장
4892,서울숲리버뷰자이아파트제1주차장,127.0388889816,37.5541970798,버스정류장
4893,왕십리로교차로,127.0389354428,37.557719765,버스정류장
4894,왕십리로교차로,127.0391339263,37.5577676066,버스정류장
4895,리버그린동아아파트,127.0382720735,37.553344391,버스정류장
4896,서울숲리버뷰자이아파트제1주차장,127.0392367112,37.5545097441,버스정류장
4897,왕십리역6-1번출구,127.0379129532,37.5607923799,버스정류장
4898,행당동서울숲더샵,127.0397222715,37.5578072325,버스정류장
4899,행당동서울숲더샵,127.0399091167,37.5580008839,버스정류장
4900,서울숲공원,127.042573685,37.5420905951,버스정류장
4901,성수역수제화거리,127.0546184401,37.5451580248,버스정류장
4902,한양대역,127.0432470892,37.5568651503,버스정류장
4904,한양대학교병원본관1층,127.0438016174,37.559459871,버스정류장
4905,한양대학교병원본관1층,127.0435712108,37.5594516108,버스정류장
4906,한양대학교병원응급실,127.0445985625,37.5598124622,버스정류장
4907,한양대학교류마티스병원동관,127.044652417,37.5599701163,버스정류장
4908,한양대학교백남학술정보관,127.0446277378,37.5589963484,버스정류장
4909,한양종합기술연구원.생활과학대학,127.0449123153,37.5590603809,버스정류장
4910,한양대학교생활과학대학,127.0465028779,37.5568034886,버스정류장
4912,한양대학교제2의학관,127.0421309686,37.5593313351,버스정류장
4914,한양대학교정문,127.0421228179,37.5577761117,버스정류장
5001,군자교입구,127.0756461481,37.5587409868,버스정류장
5002,군자교입구,127.0749002776,37.5587937258,버스정류장
5003,군자역.용마초등학교,127.082473132,37.5560989145,버스정류장
5004,군자역.용마초등학교,127.081556441,37.5562698192,버스정류장
5005,중곡동입구삼거리,127.086550509,37.5544965543,버스정류장
5006,어린이대공원후문.아차산역,127.0901491873,37.5512084718,버스정류장
5007,어린이대공원후문.아차산역,127.0892141692,37.5527548961,버스정류장
5008,중곡동입구삼거리,127.085229,37.554926,버스정류장
5009,새밭교회,127.0931845435,37.5489834052,버스정류장
5010,새밭교회,127.0926144514,37.548957926,버스정류장
5011,광나루역,127.1026490566,37.5457409721,버스정류장
5012,광나루역,127.1037600333,37.5451588569,버스정류장
5101,군자교,127.0752029849,37.561532857,버스정류장
5102,군자교,127.0752287457,37.5623861756,버스정류장
5103,천주교서울대교구홍병철관,127.0773349708,37.5589508735,버스정류장
5104,천주교서울대교구홍병철관,127.0776318627,37.559086619,버스정류장
5105,중곡1동주민센터입구,127.0783835194,37.5605224214,버스정류장
5106,중곡1동주민센터입구,127.078403699,37.5608783017,버스정류장
5107,중곡1동사거리,127.0794725244,37.5624536807,버스정류장
5108,중곡1동사거리,127.0792818001,37.5624813464,버스정류장
5109,중마초등학교.중곡제일골목시장앞,127.0808443646,37.5649806937,버스정류장
5111,용마사거리,127.0818720972,37.5622907455,버스정류장
5112,중곡2동주민센터앞,127.0808552636,37.5598837254,버스정류장
5113,중곡2동주민센터앞,127.0811551751,37.5598402672,버스정류장
5114,중곡동성당앞,127.0829363287,37.5631682406,버스정류장
5115,보건복지행정타운,127.0833601348,37.5638882429,버스정류장
5116,대원여자고등학교앞,127.087052,37.562118,버스정류장
5117,중곡보건지소,127.0869845748,37.5599194877,버스정류장
5118,신성시장앞,127.0876755037,37.5583163621,버스정류장
5119,중곡우체국앞,127.0838852989,37.5615773116,버스정류장
5120,중곡3동주민센터,127.0797293274,37.569746048,버스정류장
5121,중곡3동주민센터,127.0794405363,37.5700272219,버스정류장
5122,중곡아파트,127.0778996992,37.5664012264,버스정류장
5123,중곡아파트,127.0771769652,37.5657955541,버스정류장
5124,중마초등학교.중곡제일골목시장앞,127.0808531239,37.5652307141,버스정류장
5125,중곡역입구,127.0816150335,37.5663404337,버스정류장
5126,중곡역입구,127.0816481504,37.5666597846,버스정류장
5127,중곡문화체육센터,127.0827951289,37.5685360222,버스정류장
5128,중곡문화체육센터,127.0826418853,37.5684915275,버스정류장
5129,면곡시장앞,127.0832843745,37.5707949236,버스정류장
5130,면곡시장앞,127.0834488311,37.5710831259,버스정류장
5131,중곡SK아파트.용암사입구,127.0860566161,37.5679159934,버스정류장
5132,용곡삼거리,127.0855902354,37.5679334531,버스정류장
5133,중곡역.국립정신건강센터,127.0845454928,37.5660464177,버스정류장
5134,대원고교앞,127.086708621,37.5639660286,버스정류장
5135,중곡SK아파트.용암사입구,127.0863735321,37.5678680041,버스정류장
5136,대원고교앞,127.0869681157,37.5641992207,버스정류장
5137,대원여자고등학교앞,127.0873093515,37.5626950451,버스정류장
5138,신성시장,127.0879297616,37.5583189468,버스정류장
5139,중곡동입구,127.0886689538,37.5541967204,버스정류장
5140,어린이대공원앞,127.0770314953,37.5520458638,버스정류장
5141,군자역6번출구,127.0786346746,37.5551766839,버스정류장
5142,구의사거리.광진소방서앞,127.083977653,37.545249575,버스정류장
5143,어린이회관,127.079201,37.545612,버스정류장
5144,구의사거리.광진소방서앞,127.0843023754,37.5449986565,버스정류장
5145,광진경찰서,127.0836883111,37.5415336614,버스정류장
5146,광진경찰서,127.0846474366,37.5430873683,버스정류장
5147,광진경찰서,127.0842426589,37.5422101065,버스정류장
5148,NH농협은행자양로지점,127.0834073669,37.5389648482,버스정류장
5149,광진구청.구의역2번출구,127.0879772581,37.5377026867,버스정류장
5150,래미안구의파크스위트,127.0890122213,37.5447158904,버스정류장
5151,구의2동주민센터입구,127.0897846677,37.5492515718,버스정류장
5152,구의2동주민센터입구,127.08958588,37.5486416815,버스정류장
5153,구의사거리,127.0857469566,37.5456510932,버스정류장
5154,구의사거리,127.0863480831,37.5458173579,버스정류장
5155,래미안구의파크스위트,127.0890507143,37.5449638155,버스정류장
5156,현대아파트앞,127.0940086584,37.5395524961,버스정류장
5157,현대아파트앞,127.0941742917,37.539643765,버스정류장
5158,광진우체국,127.090409,37.537998,버스정류장
5161,강변역A,127.0937169006,37.5361136997,버스정류장
5162,테크노마트앞.강변역,127.0937549878,37.5368645137,버스정류장
5163,구의현대2단지아파트,127.0965424639,37.5378533679,버스정류장
5164,광장동금호베스트빌,127.0932099949,37.5433926994,버스정류장
5165,광장동금호베스트빌,127.0936875546,37.5433887171,버스정류장
5166,광장동현대아파트앞,127.0977640864,37.541909114,버스정류장
5167,광장동현대아파트앞,127.0989722091,37.54207254,버스정류장
5168,광나루역.극동아파트,127.1029628675,37.5435355041,버스정류장
5169,광나루역.극동아파트,127.1033202823,37.5442424761,버스정류장
5170,어린이대공원역2번출구,127.075378,37.546984,버스정류장
5172,워커힐아파트.광장동,127.1067149694,37.547895755,버스정류장
5173,워커힐아파트앞,127.1090263699,37.5504960052,버스정류장
5174,워커힐입구,127.1087232242,37.550613427,버스정류장
5175,NH농협은행자양로지점,127.0831891894,37.5387627825,버스정류장
5176,자양사거리,127.0824320547,37.5369337778,버스정류장
5177,자양사거리,127.0821044683,37.5367503042,버스정류장
5178,자양초등학교앞,127.0784673729,37.5379478514,버스정류장
5179,자양초등학교앞,127.0792651176,37.5374228649,버스정류장
5180,건국대학교앞,127.0750483076,37.5387452063,버스정류장
5183,자양미소약국.자양골목시장,127.077319,37.53275,버스정류장
5185,자양동우체국.중앙농협,127.081413066,37.531572725,버스정류장
5187,자양하늘채베르아파트앞,127.0846079653,37.5321922367,버스정류장
5188,자양동잠실대교북단,127.0848057104,37.5329553244,버스정류장
5189,신자초등학교앞,127.0749155368,37.5304403173,버스정류장
5190,자양미소약국.자양골목시장,127.0768712862,37.5327003382,버스정류장
5191,자양동우체국.중앙농협,127.0807386521,37.5315308364,버스정류장
5192,동서울우편집중국앞,127.084337729,37.5350521104,버스정류장
5193,자양하늘채베르아파트앞,127.0846733447,37.5319732231,버스정류장
5194,자양동잠실대교북단,127.0858514017,37.5321201527,버스정류장
5195,자양2동주민센터,127.08517,37.527949,버스정류장
5196,구립행복마루어린이집,127.082213,37.527743,버스정류장
5197,자양한강도서관,127.078333,37.528429,버스정류장
5199,광진구청.구의역3번출구,127.0882893582,37.5375186301,버스정류장
5200,자양한강전통시장,127.066874712,37.5355719112,버스정류장
5201,신양초등학교앞,127.0692877009,37.5349118182,버스정류장
5202,신양초등학교앞,127.0689474032,37.535233709,버스정류장
5203,뚝도변전소앞,127.0689075815,37.5360909985,버스정류장
5204,광진문화예술회관,127.0701692006,37.5385652456,버스정류장
5205,건국대학교앞,127.0748753929,37.5384461141,버스정류장
5209,신자초등학교앞,127.074922,37.530768,버스정류장
5210,자양우성아파트앞,127.0734112939,37.5337952382,버스정류장
5211,자양우성아파트앞,127.0734066984,37.533946958,버스정류장
5212,자양고교앞,127.0711714016,37.5345790942,버스정류장
5213,자양고교앞,127.0713601174,37.53431586,버스정류장
5214,대동아파트앞,127.068967,37.536419,버스정류장
5215,노룬산골목시장,127.0672016099,37.5357293289,버스정류장
5216,영동교골목시장,127.0626912618,37.5395029881,버스정류장
5217,건대입구역6번출구,127.0672788711,37.5408268775,버스정류장
5218,건대로데오거리입구,127.070158,37.539081,버스정류장
5219,롯데캐슬리버파크시그니처아파트,127.0629447386,37.5368058708,버스정류장
5220,영동대교북단,127.0611888361,37.5367146879,버스정류장
5221,롯데캐슬리버파크시그니처아파트,127.0628993085,37.5366067526,버스정류장
5222,자양역1번출구,127.0679166913,37.5338028399,버스정류장
5223,자양4동주민센터앞,127.067497,37.533632,버스정류장
5224,성수사거리,127.0647765888,37.5431585111,버스정류장
5225,화양사거리,127.0670885688,37.5472318425,버스정류장
5226,광진광장,127.0715209148,37.5477151717,버스정류장
5227,어린이대공원역4번출구,127.0736284938,37.5466216409,버스정류장
5228,한아름공원,127.0722179767,37.5437160861,버스정류장
5229,건대입구역사거리.건대병원,127.093185,37.548983,버스정류장
5230,건대입구역1번출구,127.0681672642,37.5408957525,버스정류장
5231,어린이대공원역3번출구,127.0751469149,37.5468045831,버스정류장
5232,건대입구역사거리.건대병원,127.071248506,37.5408198597,버스정류장
5233,어린이회관,127.079595313,37.5452722228,버스정류장
5234,천주교화양동성당,127.0735881785,37.5459043941,버스정류장
5235,송정동서울숲아이파크,127.0695975111,37.5517044591,버스정류장
5236,송정동건영아파트,127.0712985506,37.5547537734,버스정류장
5237,군자교남단,127.0727879339,37.557410967,버스정류장
5238,중앙농협군자지점,127.0767090775,37.5577085489,버스정류장
5239,중앙농협군자지점,127.0765591034,37.5571562758,버스정류장
5240,능동우편취급국,127.0760329007,37.5561609072,버스정류장
5241,군자동주민센터,127.0752869423,37.5549755455,버스정류장
5242,군자동주민센터,127.0753228303,37.5546466232,버스정류장
5243,세종초등학교.세종사이버대학교앞,127.0733966913,37.5535248785,버스정류장
5244,세종초교앞,127.0743618087,37.5538666538,버스정류장
5245,군자새마을금고.성동광진위센터,127.0713225073,37.5518512093,버스정류장
5246,군자새마을금고앞,127.0710877554,37.5513566499,버스정류장
5247,장안초등학교,127.070754754,37.5486923124,버스정류장
5248,장안초등학교,127.0704835547,37.5485801736,버스정류장
5249,화양사거리,127.0686841693,37.5483288986,버스정류장
5250,광진광장,127.0715410787,37.5480051511,버스정류장
5251,어린이대공원앞.세종대학교,127.07544,37.549752,버스정류장
5252,능동교회앞,127.0769927342,37.5528739948,버스정류장
5253,군자역7번출구,127.07882,37.556322,버스정류장
5256,아차산역삼거리,127.0867859773,37.554581226,버스정류장
5257,용마초등학교,127.081723671,37.5565422552,버스정류장
5258,아차산역2번출구,127.0905075507,37.5508666828,버스정류장
5259,서울화양동우체국,127.0687743625,37.5481104097,버스정류장
5260,중곡동입구,127.0882622041,37.554798956,버스정류장
5261,제일은행사거리,127.0747505569,37.5335505333,버스정류장
5262,동곡삼거리,127.0779538856,37.5636739408,버스정류장
5263,건대병원입구,127.0714727877,37.5421084758,버스정류장
5265,광진청소년센터,127.1053745185,37.5459514944,버스정류장
5266,강변역B,127.0937383582,37.5360541462,버스정류장
5267,테크노마트앞.강변역,127.0938031252,37.5369050205,버스정류장
5268,중곡동성당,127.0824010859,37.5627654195,버스정류장
5269,보건복지행정타운,127.0833026919,37.564373065,버스정류장
5270,중곡역.국립정신건강센터,127.0843249567,37.5662294972,버스정류장
5271,용곡삼거리,127.0855997978,37.5685782991,버스정류장
5272,구의3동주민센터,127.0925470575,37.5390684116,버스정류장
5273,구의3동주민센터,127.0921000962,37.5390484885,버스정류장
5298,광진구민체육센터,127.1078574657,37.5469081131,버스정류장
5299,광나루우편취급국,127.1063092687,37.5474023285,버스정류장
5500,중곡4동경로당입구앞,127.0939630731,37.5591306198,버스정류장
5501,중곡아파트.종점,127.0779156425,37.5663789768,버스정류장
5503,긴고랑종점,127.0960429247,37.562194465,버스정류장
5504,정보도서관,127.1104622298,37.5502486719,버스정류장
5505,강원설비앞,127.0901359394,37.5590029448,버스정류장
5506,강원설비앞,127.0899354071,37.5588490108,버스정류장
5508,중앙상회앞,127.0947974601,37.5601590013,버스정류장
5509,포제스한강아파트,127.1094523282,37.5484546316,버스정류장
5510,중곡4동경로당입구앞,127.0942812172,37.5591925416,버스정류장
5511,중곡아파트.기점,127.0781637961,37.5668768426,버스정류장
5512,대순진리회,127.0871709238,37.5614417271,버스정류장
5513,CU중곡긴고랑점앞,127.0930312463,37.5589159963,버스정류장
5514,광나루현대아파트,127.1075869834,37.546721738,버스정류장
5515,긴고랑주차장,127.0956309346,37.5609606399,버스정류장
5517,신성시장입구,127.0880096605,37.5585269693,버스정류장
5518,중곡4동어린이집입구,127.0917043706,37.5586845522,버스정류장
5519,신동아아파트,127.105328946,37.5463512912,버스정류장
5522,마을금고.브레드제과점,127.0892468924,37.5576339581,버스정류장
5523,긴고랑입구,127.0886688403,37.5588770015,버스정류장
5527,우리들약국,127.0902850791,37.5569014807,버스정류장
5528,광남고.삼성아파트,127.1014183009,37.5419477863,버스정류장
5531,해오름공원입구,127.0911230749,37.5563079173,버스정류장
5533,현대3차아파트,127.0996486938,37.5404651876,버스정류장
5535,용마사거리,127.0814330674,37.5624460371,버스정류장
5536,기원정사입구,127.0931371525,37.5548826175,버스정류장
5539,송림식당앞,127.0766299665,37.5368221134,버스정류장
5540,중곡우체국앞,127.0840577691,37.5611637445,버스정류장
5541,영화사입구,127.0941176381,37.5542285469,버스정류장
5542,군자역,127.0800822765,37.5578748138,버스정류장
5543,강변역.테크노마트앞,127.0948590232,37.5363934727,버스정류장
5544,자양중학교앞,127.0759963869,37.5346905273,버스정류장
5545,구의2동주택가공동주차장,127.0932969209,37.5532100607,버스정류장
5549,롯데프레시아차산점.한사랑약국,127.0921939479,37.5518187362,버스정류장
5550,구의역,127.0892373497,37.5382387949,버스정류장
5551,배건태한의원.로엘동물병원,127.0792387772,37.5319860054,버스정류장
5553,아차산역사거리,127.0913081489,37.5507215451,버스정류장
5554,중곡보건지소,127.0870747483,37.5595305795,버스정류장
5555,썬더치킨앞,127.0900164716,37.5415506336,버스정류장
5556,영동대교입구.성수사거리,127.064525855,37.5428255093,버스정류장
5558,선화예고앞,127.0900588338,37.5494847466,버스정류장
5559,긴고랑입구,127.0886686737,37.5587364311,버스정류장
5560,구의홈마트앞,127.0897229975,37.5402902234,버스정류장
5561,화양동현대아파트,127.0652401586,37.5439827587,버스정류장
5562,성자초등학교앞,127.0822557273,37.5313000096,버스정류장
5563,한국켄트외국인학교,127.0880988204,37.5477299911,버스정류장
5564,중곡4동어린이집입구,127.0916679445,37.5585169771,버스정류장
5565,래미안구의파크스위트사거리,127.0906000271,37.5440489261,버스정류장
5566,성수대우프레시아1차아파트,127.0659848276,37.5452943403,버스정류장
5569,CU중곡긴고랑점앞,127.0930027538,37.5587592285,버스정류장
5571,화양사거리.SKV1센터,127.0664104572,37.546257958,버스정류장
5572,본하이츠빌.삼부빌딩,127.0870098898,37.5329501167,버스정류장
5574,중앙상회앞,127.0949721336,37.5601577922,버스정류장
5576,성동초등학교,127.0891356598,37.5336144423,버스정류장
5578,광장중학교앞,127.1024015366,37.5467903263,버스정류장
5579,구의아크로리버앞,127.0921362577,37.5352926857,버스정류장
5580,구의역4번출구,127.084837057,37.5366543055,버스정류장
5581,장신대앞,127.1052273651,37.5475393553,버스정류장
5582,강변역A,127.093833,37.535988,버스정류장
5584,워커힐아파트입구,127.1065941453,37.5478863435,버스정류장
7433,서울의료원후문,127.098397,37.613665,버스정류장
5585,동서울호텔앞,127.0920490446,37.5345920961,버스정류장
5587,워커힐아파트,127.1075883052,37.5500035243,버스정류장
5588,성동초등학교,127.0891188071,37.5337153779,버스정류장
5589,본하이츠빌.삼부빌딩,127.0870462374,37.5330699358,버스정류장
5591,워커힐아파트입구,127.1065163612,37.5480798615,버스정류장
5594,구의역1번출구,127.084788302,37.5369298571,버스정류장
5595,장신대앞,127.1051324275,37.5476304504,버스정류장
5596,성자초등학교앞,127.0825682599,37.5315196593,버스정류장
5597,광장중학교앞,127.1024888949,37.5469479421,버스정류장
5599,광진경찰서앞,127.0843546327,37.542346877,버스정류장
5600,양진중학교.재한몽골학교,127.097965691,37.5454433478,버스정류장
5601,국립정신건강센터,127.0864985879,37.5654064298,버스정류장
5665,자양동,127.0676371086,37.5356142027,버스정류장
5666,자양동,127.0668479521,37.5356349246,버스정류장
5668,배건태한의원.로엘동물병원,127.0790299525,37.5322779304,버스정류장
5670,청구아파트앞,127.0967938276,37.5423895999,버스정류장
5671,광장자이아파트,127.0949238539,37.542252836,버스정류장
5672,서울서광교회앞,127.088351026,37.5475847263,버스정류장
5677,자양중학교앞,127.0762758207,37.5346353803,버스정류장
5679,래미안구의파크스위트사거리,127.0904643237,37.5441301287,버스정류장
5680,자양1파출소앞,127.0769071428,37.5367651642,버스정류장
5687,면곡시장,127.0813749581,37.571462406,버스정류장
5690,동곡삼거리,127.0782624509,37.5638021287,버스정류장
5694,광진구의회,127.0701166071,37.5391969456,버스정류장
5695,광진구의회,127.0700807237,37.5383360513,버스정류장
5696,건대입구역,127.0720930253,37.5433804463,버스정류장
5697,건대입구역,127.0719007166,37.5422803253,버스정류장
5698,세종대학교,127.0755658718,37.5498616561,버스정류장
5699,세종대학교,127.0760310216,37.5498550499,버스정류장
5700,군자역,127.0788605078,37.5563636008,버스정류장
5701,군자역,127.0786410853,37.555213125,버스정류장
5709,롯데프레시아차산점.한사랑약국,127.0923104685,37.5517744916,버스정류장
5710,세븐일레븐구의중앙로점앞,127.089870505,37.5415633601,버스정류장
5713,구의2동주택가공동주차장,127.0933919081,37.5531415024,버스정류장
5714,구의홈마트앞,127.089564605,37.5403191787,버스정류장
5716,종로약국앞,127.0881058981,37.5575879581,버스정류장
5717,영화사입구,127.0941502787,37.5540834447,버스정류장
5718,구의역,127.08909255,37.5382758492,버스정류장
5720,기원정사입구,127.0930355787,37.5551737566,버스정류장
5721,테크노마트.광진문화원,127.0961011535,37.5370205329,버스정류장
5723,해오름공원입구,127.0913641894,37.5563302584,버스정류장
5724,프라임아파트앞,127.0970323661,37.5378379672,버스정류장
5726,용마사거리,127.0812432362,37.5627570449,버스정류장
5727,우리들약국,127.0903690097,37.5570437893,버스정류장
5728,현대3.5차아파트,127.1003518538,37.5407790748,버스정류장
5731,마을금고앞,127.0893930217,37.5577311656,버스정류장
5732,광남고.삼성아파트,127.1017492793,37.5423430827,버스정류장
5733,자양종합복지관앞,127.075429514,37.5324649901,버스정류장
5735,신성시장입구,127.0880630283,37.5586702034,버스정류장
5737,대순진리회,127.0875676658,37.5609548433,버스정류장
5739,대원외고앞,127.0871413296,37.5632448358,버스정류장
5740,광나루현대아파트,127.1077533058,37.5466936524,버스정류장
5741,중곡4동파출소,127.0867703018,37.5654194455,버스정류장
5742,포제스한강아파트,127.1093151239,37.5482745397,버스정류장
5744,워커힐팰리스,127.1096719072,37.5500133218,버스정류장
5745,워커힐호텔비스타워커힐,127.1102655251,37.5542416044,버스정류장
5752,아차산역사거리,127.0914351492,37.5506719315,버스정류장
5755,중곡119안전센터,127.0863,37.566684,버스정류장
5757,구의3동주민센터,127.0916151163,37.5380104633,버스정류장
5900,뚝섬유원지,127.0668303967,37.5311823597,버스정류장
5901,건국대입구,127.0675636466,37.5411150129,버스정류장
5990,광장자이아파트,127.0949108596,37.5421672546,버스정류장
5992,양진중학교.재한몽골학교,127.0980186154,37.5452405574,버스정류장
5993,청구아파트앞,127.0961815897,37.5432605587,버스정류장
5994,용마사거리,127.0822104997,37.5618532936,버스정류장
5999,강변역.테크노마트앞,127.0947896041,37.5363411077,버스정류장
6001,답십리역사거리,127.0550604632,37.5651870868,버스정류장
6002,청년회의소,127.0612838214,37.5619653169,버스정류장
6003,장한평역,127.0672869559,37.5611510646,버스정류장
6004,신답초등학교.청계한신휴플러스,127.044292,37.571753,버스정류장
6005,신답초등학교.청계한신휴플러스,127.0447281029,37.5717559096,버스정류장
6006,동대문구청,127.038327222,37.5740954485,버스정류장
6007,서울시동부병원,127.0309536211,37.5739292519,버스정류장
6008,신설동역.서울풍물시장,127.0257176822,37.574427911,버스정류장
6009,중랑교,127.0677039967,37.5916996082,버스정류장
6010,중랑교,127.0668383757,37.5914246178,버스정류장
6011,삼육서울병원,127.0606858682,37.589691279,버스정류장
6012,삼육서울병원,127.0619514091,37.589992454,버스정류장
6013,시조사삼거리,127.056888,37.588707,버스정류장
6014,떡전교사거리.동대문노인복지관,127.0520111918,37.5864439121,버스정류장
6015,청량리역환승센터,127.0454307288,37.5804025104,버스정류장
6016,청량리역환승센터,127.0460771387,37.5802508767,버스정류장
6017,동대문구청,127.0399889148,37.5734588708,버스정류장
6018,청량리역환승센터,127.0457513342,37.5802240706,버스정류장
6019,청량리역환승센터,127.0457230797,37.5803029185,버스정류장
6020,청량리역환승센터,127.0453667154,37.5807152606,버스정류장
6021,청량리미주아파트.동대문세무서,127.048395,37.58278,버스정류장
6022,청량리청과물도매시장,127.0406051232,37.5787911202,버스정류장
6023,제기동역.서울약령시,127.0377802394,37.5781433423,버스정류장
6024,제기동역.서울약령시,127.036575079,37.5782136235,버스정류장
6025,용두동사거리,127.0299882252,37.5775320632,버스정류장
6026,용두동사거리.한국의류시험연구원,127.0282789088,37.5771526546,버스정류장
6027,신설동역,127.0250446359,37.5761500409,버스정류장
6028,신설동역,127.0238433051,37.575826798,버스정류장
6101,신설동역,127.0255836506,37.576453593,버스정류장
6102,신설동역,127.025947005,37.5762453617,버스정류장
6103,용두동한국의류시험연구원,127.029114172,37.5775187657,버스정류장
6104,용두로타리한국의류시험연구원,127.0294820292,37.5772564569,버스정류장
6105,제기역약령시장,127.0366096265,37.5782970238,버스정류장
6106,제기역약령시장,127.0368349109,37.5780535417,버스정류장
6107,신설동역1번출구,127.0233166791,37.5766303332,버스정류장
6108,청계한신휴플러스,127.044109,37.571799,버스정류장
6112,청량리미주상가앞,127.0476780218,37.5818902252,버스정류장
6113,서울성심병원,127.0502442553,37.5843923886,버스정류장
6114,서울성심병원,127.0508977332,37.5846074691,버스정류장
6115,시조사,127.0522795666,37.5868487759,버스정류장
6117,휘경동입구,127.0552071034,37.5876644832,버스정류장
6118,삼육서울병원,127.0606123322,37.5897656487,버스정류장
6120,래미안라그란데아파트,127.06193,37.600355,버스정류장
6121,중랑교,127.0664306844,37.59114436,버스정류장
6122,회기시장,127.0566389299,37.5912026288,버스정류장
6123,회기시장,127.0565879609,37.5908060401,버스정류장
6124,경희중고,127.0577445104,37.5929228111,버스정류장
6125,경희중고,127.0583346646,37.5933472946,버스정류장
6126,외대앞,127.0596059335,37.5956282146,버스정류장
6127,외대앞,127.0597677578,37.5954812555,버스정류장
6128,이문동우체국,127.061338,37.598348,버스정류장
6129,이문동교회,127.0621071328,37.6002569171,버스정류장
6130,의릉입구,127.061963,37.603888,버스정류장
6131,의릉입구,127.0621763625,37.6034852714,버스정류장
6132,한천로쌍용아파트앞,127.0676192785,37.5981910949,버스정류장
6133,한천로쌍용아파트앞,127.0678869789,37.5986649133,버스정류장
6134,이문동삼익아파트,127.0682139128,37.5945485558,버스정류장
6135,이문동삼익아파트,127.0683627707,37.5951035399,버스정류장
6136,동일스위트리버아파트.휘봉고교,127.0677525508,37.5877987669,버스정류장
6137,휘경유수지견인차고지앞,127.068577,37.58842,버스정류장
6138,답십리래미안엘파인아파트,127.067330886,37.5756772295,버스정류장
6139,래미안엘파인아파트.장안동성당,127.06758,37.575593,버스정류장
6140,서울준법지원센터.동성빌라,127.0673893111,37.5855552625,버스정류장
6141,서울준법지원센터.동성빌라,127.0676702359,37.5856794521,버스정류장
6142,휘경여중고.휘경주공아파트앞,127.0682824634,37.5826030732,버스정류장
6143,휘경여중고.휘경주공아파트,127.0685434142,37.5821574897,버스정류장
6144,장안동현대아파트앞,127.0685412036,37.5797461738,버스정류장
6145,전곡시장앞,127.06779506,37.5772370675,버스정류장
6146,전곡시장앞,127.0681419969,37.5773293235,버스정류장
6147,답십리촬영소.우성그린아파트,127.0668512705,37.5741908611,버스정류장
6148,촬영소사거리.우성그린아파트,127.0669165487,37.5735106563,버스정류장
6149,동답초등학교,127.065489039,37.5710397628,버스정류장
6150,동답한신.동아아파트,127.0641135329,37.5696220827,버스정류장
6151,동답한신.동아아파트,127.0639045358,37.568881615,버스정류장
6152,동아.위더스빌아파트,127.0622143149,37.5667402906,버스정류장
6153,답십리2동주민센터,127.06181,37.566603,버스정류장
6154,하나은행장안동지점,127.0585564607,37.5634035936,버스정류장
6155,장한평역4번출구,127.067137684,37.5613115442,버스정류장
6156,청년회의소앞,127.0615307058,37.5621102645,버스정류장
6157,고미술상가,127.0572974308,37.563609188,버스정류장
6158,답십리역.동부시장,127.0525194449,37.5672562517,버스정류장
6159,신답역앞,127.0470913509,37.5708430857,버스정류장
6160,동대문구청.용두역4번출구,127.0397135905,37.5734350116,버스정류장
6161,용두역,127.037268,37.573977,버스정류장
6162,용두동신동아아파트,127.0317924634,37.5737704369,버스정류장
6163,동대문우체국.서울풍물시장,127.0245652731,37.574759758,버스정류장
6164,동대문구청.용두역3번출구,127.0383451914,37.5755374598,버스정류장
6165,동대문구청.용신동주민센터,127.0384168651,37.5765807726,버스정류장
6166,동대문구청.용신동주민센터,127.0379882341,37.5753096484,버스정류장
6167,경동시장앞,127.0387559286,37.5819989191,버스정류장
6168,제기동주민센터.서울약령시앞,127.0383947016,37.5819251477,버스정류장
6169,경동시장,127.038283869,37.5799644113,버스정류장
6170,홍파초등학교.정화여중고,127.038639,37.585531,버스정류장
6171,홍파초등학교.정화여중고,127.0383377075,37.5855971074,버스정류장
6172,제기동한신아파트앞,127.037888,37.587603,버스정류장
6173,고려대역.고대앞삼거리,127.0366856036,37.5894337656,버스정류장
6174,고려대역.고대앞삼거리,127.0366498479,37.5887478517,버스정류장
6175,고려대학교앞,127.0346801536,37.5881363102,버스정류장
6176,우신향병원,127.0323863454,37.5857223011,버스정류장
6177,안암오거리,127.0298970499,37.5824613624,버스정류장
6178,대광고등학교앞,127.0255621436,37.5797777214,버스정류장
6179,종암초등학교앞,127.0295992386,37.5816186068,버스정류장
6180,용두시장앞,127.0303341829,37.5791115868,버스정류장
6181,용두시장앞,127.030161,37.579035,버스정류장
6182,서울시동부병원,127.0304302445,37.5758964701,버스정류장
6183,서울시동부병원,127.0306952909,37.5761901571,버스정류장
6184,동아제약앞,127.0304424882,37.5725993738,버스정류장
6185,동아제약앞,127.0307312249,37.5727164409,버스정류장
6186,떡전교앞,127.0526948922,37.5849040401,버스정류장
6187,떡전교앞,127.0525769324,37.5846184473,버스정류장
6188,서울시립대입구,127.0540556741,37.5830057298,버스정류장
6189,서울시립대학교앞,127.053939948,37.5826804893,버스정류장
6190,서울시동부교육지원청.해성국제컨벤션고교,127.0568650184,37.5791853497,버스정류장
6191,전농로터리시장.동부교육지원청,127.05676,37.578817,버스정류장
6192,전농우체국앞,127.057575,37.576367,버스정류장
6193,전농우체국앞,127.0578903291,37.5765201613,버스정류장
6194,청솔우성아파트.답십리시장,127.0576479903,37.5737092806,버스정류장
6195,미드카운티아파트.청솔우성아파트,127.0573890413,37.5741112935,버스정류장
6196,답십리2동시온교회앞,127.0573999289,37.5705961302,버스정류장
6197,답십리1동희망샘교회앞,127.0571055329,37.5705241856,버스정류장
6198,답십리초등학교.현대시장,127.0572012663,37.568453856,버스정류장
6199,답십리초등학교앞,127.0569308801,37.5686265703,버스정류장
6200,답십리역사거리,127.0552010664,37.5655060079,버스정류장
6201,황물로사거리,127.0559919809,37.5665418919,버스정류장
6202,답십리1동주민센터.래미안위브,127.0510037445,37.5723670085,버스정류장
6203,답십리1동주민센터.래미안위브,127.0511402741,37.5720993946,버스정류장
6204,동대문중학교,127.0537544246,37.5750129513,버스정류장
6205,동대문중학교,127.0532771747,37.5741762971,버스정류장
6206,전농래미안크레시티아파트,127.0555920845,37.5762802499,버스정류장
6207,대한노인회동대문구지회,127.0559030771,37.5762111791,버스정류장
6208,전농사거리,127.0590375541,37.5778147722,버스정류장
6209,전농사거리,127.059240552,37.5775633596,버스정류장
6210,배봉초등학교.전농우성아파트,127.0672948159,37.5786953183,버스정류장
6211,배봉초등학교.전농우성아파트,127.0674157317,37.5784402407,버스정류장
6212,장안2동주민센터,127.0704039846,37.5788403828,버스정류장
6213,장안2동주민센터,127.0704638197,37.5786959839,버스정류장
6214,장안교앞,127.0739714006,37.5796533965,버스정류장
6215,장안교.은석초등학교,127.0746902496,37.5796191566,버스정류장
6216,청량리역6번출구,127.043803,37.578083,버스정류장
6217,청량리역6번출구,127.043785792,37.577945301,버스정류장
6218,롯데캐슬노블레스,127.0484716502,37.5755552627,버스정류장
6219,전농1파출소,127.0471184271,37.5760847235,버스정류장
6220,래미안크레시티.답십리도서관,127.0502439795,37.574561753,버스정류장
6221,동대문구답십리도서관앞,127.051026821,37.573881303,버스정류장
6222,답십리래미안위브아파트,127.0548282074,37.5727689807,버스정류장
6223,답십리래미안미드카운티,127.055558,37.57298,버스정류장
6224,답십리사거리,127.0567075826,37.5727320519,버스정류장
6225,답십리2동두산아파트,127.0585128409,37.572753697,버스정류장
6226,답십리시장.청솔우성아파트후문,127.0587580146,37.5729536188,버스정류장
6227,답십리2동한양아파트앞,127.0614069359,37.5726702291,버스정류장
6228,답십리2동한양아파트앞,127.0611222564,37.5729573511,버스정류장
6229,동답한신.대림아파트.동대문체육관,127.063768,37.572663,버스정류장
6230,촬영소사거리.동답초등학교,127.065212,37.572642,버스정류장
6231,촬영소사거리.세양청마루아파트앞,127.0653558711,37.5728897611,버스정류장
6232,동대문구.성동구선거관리위원회,127.0682024772,37.5724872082,버스정류장
6233,동대문구.성동구선거관리위원회,127.0678744595,37.5727734631,버스정류장
6234,장안사거리,127.070338726,37.5725845345,버스정류장
6235,국민은행장안동지점,127.0734972565,37.5723759111,버스정류장
6236,국민은행장안동지점,127.0742100898,37.5720533595,버스정류장
6237,장안동근린공원,127.0719536475,37.5773238141,버스정류장
6238,장안동근린공원,127.0723879948,37.5783141497,버스정류장
6239,동대문더퍼스트데시앙아파트,127.0717763134,37.574992107,버스정류장
6240,NH농협장안평지점,127.0721655351,37.5751529569,버스정류장
6241,코리아병원,127.0716598633,37.5732069079,버스정류장
6242,새서울병원,127.0720050585,37.5731012702,버스정류장
6243,장안동삼성쉐르빌아파트,127.0713568649,37.5713996448,버스정류장
6244,장안동삼성쉐르빌아파트,127.070843,37.571238,버스정류장
6245,힐스테이트장안센트럴,127.070183,37.569605,버스정류장
6246,현대벤처빌.현대썬앤빌,127.0694007013,37.5689208635,버스정류장
6247,현대벤처빌,127.0692809071,37.5682414609,버스정류장
6248,우리은행장안지점앞,127.067727,37.566393,버스정류장
6249,우리은행장안지점앞,127.0676384821,37.565598658,버스정류장
6250,북한연구소앞,127.0661434798,37.5634648165,버스정류장
6251,장한평역2번출구,127.0649278366,37.5622965411,버스정류장
6252,장한평역3번출구,127.0654362294,37.5624370636,버스정류장
6253,신이문역,127.0679015637,37.6026165732,버스정류장
6254,이문동현대아파트앞,127.070677379,37.6010179381,버스정류장
6255,이문동현대아파트,127.0709847069,37.6008590191,버스정류장
6256,휘경2동주민센터,127.0680485017,37.5907361464,버스정류장
6257,휘경2동주민센터,127.0680858743,37.5905048929,버스정류장
6258,동부아동보호전문기관.동대부중고,127.0763833794,37.576833541,버스정류장
6259,장안삼성래미안2차아파트,127.0766223278,37.574681581,버스정류장
6260,장안삼성래미안2차아파트.성복교회,127.0768144692,37.5728468216,버스정류장
6261,장안현대홈타운아파트앞,127.073388625,37.5697591707,버스정류장
6262,구민회관앞,127.073941301,37.5663862675,버스정류장
6263,파라브아파트,127.0723739757,37.5635828092,버스정류장
6264,장안현대홈타운상가,127.0743786204,37.571308398,버스정류장
6265,장안현대홈타운앞,127.0756173134,37.5692893642,버스정류장
6266,장안치안센터,127.0724996415,37.5679458841,버스정류장
6267,장안치안센터,127.0727017522,37.568222123,버스정류장
6268,장평중학교,127.0709395499,37.565745401,버스정류장
6269,회기역종점,127.0588619251,37.5899003691,버스정류장
6270,경희대입구,127.0530131529,37.5912717108,버스정류장
6271,경희대입구,127.0527127306,37.5915831099,버스정류장
6272,서울바이오허브,127.0501400812,37.5913878427,버스정류장
6273,서울바이오허브,127.0492768654,37.5916089493,버스정류장
6274,한국과학기술원.홍릉초등학교,127.045747,37.591769,버스정류장
6275,한국과학기술원.홍릉초등학교,127.0469641413,37.5915445702,버스정류장
6276,국방연구원,127.0411809472,37.5914093283,버스정류장
6277,국방연구원,127.040058371,37.5911039928,버스정류장
6278,세종대왕기념관,127.042380198,37.5898533719,버스정류장
6279,세종대왕기념관,127.0425673859,37.5904615395,버스정류장
6280,영휘원사거리.(구)홍릉사거리,127.0431751633,37.5860009275,버스정류장
6281,영휘원사거리.(구)홍릉사거리,127.043466176,37.586014337,버스정류장
6282,동대문경찰서,127.043784304,37.5841404107,버스정류장
6283,동대문경찰서,127.0442607393,37.5835585724,버스정류장
6284,현대코아,127.0448733855,37.5818120287,버스정류장
6285,현대코아,127.0446557984,37.5814859166,버스정류장
6286,동대문중앙새마을금고,127.0412131745,37.5831179316,버스정류장
6287,동대문중앙새마을금고,127.0422207161,37.5829869315,버스정류장
6288,제기동주민센터앞,127.0378676044,37.5829768901,버스정류장
6289,제기동한신아파트,127.0373610455,37.5866381789,버스정류장
6290,제기시장,127.0352199679,37.586385972,버스정류장
6291,제기시장,127.0346709609,37.5866248976,버스정류장
6293,외대역앞,127.0609470779,37.596009591,버스정류장
6294,외대역앞,127.0613604745,37.5960661454,버스정류장
6295,이경시장,127.0649927315,37.5952640352,버스정류장
6297,청랑리한신아파트.청량사입구,127.0474140067,37.5867421008,버스정류장
6298,전동초등학교.전농동SK아파트,127.060944646,37.5777508201,버스정류장
6299,벽산아파트,127.0305141879,37.5827562798,버스정류장
6300,제기동천주교회,127.033571029,37.582856812,버스정류장
6301,이문동쌍용아파트,127.0688553749,37.5988779848,버스정류장
6302,이문동쌍용아파트,127.0691211054,37.5988317049,버스정류장
6303,이문1동주민센터,127.0652559287,37.5978067756,버스정류장
6304,전동초등학교.전농동SK아파트,127.061494401,37.578119856,버스정류장
6308,한국산업인력공단서울지역본부,127.072970655,37.5837445296,버스정류장
6309,서울반도체고교.휘경주공아파트,127.0692518943,37.5841657316,버스정류장
6310,e편한세상청계센트럴포레아파트,127.0302942423,37.5708159089,버스정류장
6311,한천로입구,127.0673520004,37.5991142874,버스정류장
6313,래미안장안1차아파트앞,127.0720204711,37.5668317101,버스정류장
6314,장평중학교앞,127.0702527994,37.564958189,버스정류장
6315,청량리미주상가앞,127.0472557344,37.5819579768,버스정류장
6316,동대문구청.용두역,127.04015,37.572834,버스정류장
6318,종로사약국,127.0653057725,37.5945213658,버스정류장
6320,회기동현대아파트,127.0544608913,37.5891109228,버스정류장
6321,우산빌딩앞,127.0546770593,37.588882349,버스정류장
6322,배봉산입구,127.0682039807,37.5803416249,버스정류장
6324,면곡시장,127.0810660939,37.5716446389,버스정류장
6330,동부아파트,127.0452316453,37.5866888977,버스정류장
6335,자동차부품상가,127.0577756725,37.5645946726,버스정류장
6349,청랑리한신아파트.청량사입구,127.0476686082,37.5865144976,버스정류장
6356,장안동삼성쉐르빌아파트앞,127.0702110373,37.5723084893,버스정류장
6357,동대문노인종합복지관,127.0497131121,37.5859460919,버스정류장
6358,쌍용아파트,127.0683889136,37.6013501097,버스정류장
6359,쌍용아파트,127.0685176937,37.6014674544,버스정류장
6416,삼육서울병원,127.0623612795,37.5902833371,버스정류장
6417,동일스위트리버앞.휘봉고교,127.0676591393,37.5871806733,버스정류장
6418,청량리수산시장,127.0408714095,37.5786434462,버스정류장
6419,휘봉초등학교,127.0696854187,37.5877063782,버스정류장
6422,휘경미소지움아파트,127.0645643148,37.5909282333,버스정류장
6423,서울반도체고교.휘경주공아파트,127.0697135361,37.5844695451,버스정류장
6424,용두동신동아아파트,127.0325997915,37.5740450496,버스정류장
6425,다사랑행복센터.서울문화재단,127.033757,37.571438,버스정류장
6426,청량리수산시장,127.0418950942,37.5789521614,버스정류장
6500,답십리역,127.0531915243,37.5667684599,버스정류장
6501,가든아파트.수사연구소,127.0720741928,37.5845492166,버스정류장
6502,회기역,127.0578476787,37.5901230159,버스정류장
6503,답십리역1번출구,127.0506963586,37.5684978574,버스정류장
6504,동일하이빌.현대베스트빌아파트,127.0739978057,37.5824731826,버스정류장
6505,동안교회,127.0577430725,37.593867821,버스정류장
6506,경희대입구,127.0527811217,37.5915657534,버스정류장
6507,청계한신휴플러스,127.0450335285,37.571807229,버스정류장
6508,시조사삼거리,127.053504,37.588481,버스정류장
6509,경희중고,127.056427291,37.5943592428,버스정류장
6510,경희대의료원.경희여중고,127.052311,37.594127,버스정류장
6511,한신휴플러스정문,127.0450796439,37.5727352624,버스정류장
6512,천장산로33,127.057872,37.598865,버스정류장
6513,경희맨션,127.0570001318,37.5956150844,버스정류장
6515,동아아파트,127.0455832239,37.5742471004,버스정류장
6516,삼성래미안,127.058495,37.600017,버스정류장
6517,경희대동문,127.0568673052,37.5966712234,버스정류장
6518,래미안라그란데,127.060119,37.59979,버스정류장
6519,전농119안전센터,127.0456081798,37.5761835356,버스정류장
6520,래미안라그란데,127.059674,37.599997,버스정류장
6521,외대.경희대후문,127.0571505475,37.5983128684,버스정류장
6523,전농1동치안센터,127.0480957022,37.5764222386,버스정류장
6524,휘경여중고.휘경주공아파트,127.0685629353,37.5824548381,버스정류장
6526,신성미소지움아파트,127.0501307614,37.5789318307,버스정류장
6528,삼성래미안,127.0573675632,37.5999118194,버스정류장
6530,청량리소화물취급소,127.0514146373,37.5805090878,버스정류장
6533,영광빌딩,127.0525059131,37.5818431221,버스정류장
6537,시립대입구,127.0534663672,37.5838521215,버스정류장
6539,외대앞역,127.0628249067,37.5953348737,버스정류장
6546,회기역종점,127.0587395905,37.5898517712,버스정류장
6556,외대.경희대후문,127.0569625455,37.5983039484,버스정류장
6557,신설동역1번출구,127.0236090065,37.5760124698,버스정류장
6559,천장산로33,127.0577550224,37.5988826722,버스정류장
6560,경희대동문,127.056746183,37.5967406655,버스정류장
6564,경희맨션,127.0569106983,37.5956556765,버스정류장
6567,경희중고,127.056342578,37.5946512359,버스정류장
6570,동안교회,127.0573015187,37.5928603119,버스정류장
8326,보문역3번출구,127.019202,37.585933,버스정류장
6572,동대부고.은석초교앞,127.0736700296,37.5792594647,버스정류장
6575,서울시립대,127.0531816401,37.5831151587,버스정류장
6576,영광빌딩,127.0521991693,37.5819811249,버스정류장
6577,청량리소화물취급소,127.0511350317,37.5805903074,버스정류장
6578,신성미소지움아파트,127.0495757982,37.5786581335,버스정류장
6579,전농1동치안센터,127.0476065132,37.5762782623,버스정류장
6580,동대문해병전우회,127.0455245142,37.5763718959,버스정류장
6581,태양하나어린이집.동아아파트,127.0454348029,37.5740642361,버스정류장
6582,한신휴플러스후문,127.0467315569,37.572989629,버스정류장
6583,신답역,127.0492345839,37.5711404728,버스정류장
6584,삼희아파트1동,127.0505437481,37.5701586306,버스정류장
6585,답십리고미술상가2동,127.0514870981,37.5689958143,버스정류장
6586,답십리건축자재시장,127.0534863549,37.567473882,버스정류장
6587,답십리쌍마사거리,127.0552015711,37.5661899369,버스정류장
6588,부속상가,127.0566146653,37.5651430993,버스정류장
6591,고려대역3번출구,127.0365261369,37.5904833874,버스정류장
6594,의료원입구사거리,127.052658489,37.5926993775,버스정류장
6595,삼육서울병원,127.0622219909,37.5902762019,버스정류장
6626,장안삼거리,127.0723517263,37.5780291247,버스정류장
6628,장안사거리.삼성래미안,127.0720255408,37.5732093887,버스정류장
6629,장안사거리.삼성래미안,127.0716864575,37.5737862935,버스정류장
6631,장한평역,127.0667268548,37.5613847656,버스정류장
6755,청량리역,127.046268,37.580477,버스정류장
6756,서울시립대입구,127.0538030705,37.5828562643,버스정류장
6757,전농로터리시장,127.0571016136,37.5772526361,버스정류장
6758,신답역,127.0477839986,37.5705481504,버스정류장
6768,장안삼거리,127.0719971746,37.5778473212,버스정류장
6774,신설동로터리.서울풍물시장,127.0234166489,37.5742755859,버스정류장
6775,경동시장앞,127.0386578148,37.58056802,버스정류장
6776,경동시장사거리,127.038109149,37.5772293536,버스정류장
6777,힐스테이트장안센트럴,127.0704788124,37.5705802667,버스정류장
6778,힐스테이트장안센트럴,127.0707390026,37.5703410911,버스정류장
6779,동답초교.대림아파트,127.0652298839,37.5712072227,버스정류장
6780,정화여중.정화고등학교,127.0417530049,37.5868028035,버스정류장
6781,정화여중.정화고등학교,127.0418434744,37.5866113105,버스정류장
6999,동대문노인종합복지관,127.0492581619,37.5863103228,버스정류장
7001,망우역,127.0911385806,37.5978283589,버스정류장
7002,망우역,127.0904651716,37.5976031898,버스정류장
7003,상봉역.중랑우체국,127.0837435605,37.5959590869,버스정류장
7004,상봉역.중랑우체국,127.0833008263,37.5957231398,버스정류장
7005,중랑역.동부시장,127.076052048,37.5939710999,버스정류장
7006,중랑역.동부시장,127.0749381812,37.5936152929,버스정류장
7007,망우역.망우지구대,127.0953897414,37.5988449322,버스정류장
7008,망우역.망우지구대,127.0948710737,37.5985580019,버스정류장
7009,우림시장.망우사거리,127.0986406612,37.5995720624,버스정류장
7010,우림시장.망우사거리,127.0982214008,37.5993651842,버스정류장
7011,금란교회,127.1040333871,37.6005297976,버스정류장
7012,금란교회,127.1033574704,37.6003640418,버스정류장
7013,동부제일병원.망우역사문화공원,127.1089021873,37.6004643043,버스정류장
7014,동부제일병원.망우역사문화공원,127.107756,37.600478,버스정류장
7101,극동늘푸른아파트,127.0764039758,37.6147026458,버스정류장
7102,묵동자이.신도브래뉴아파트,127.0765885798,37.6152702687,버스정류장
7103,묵동삼거리.먹골역,127.0771199228,37.6125566965,버스정류장
7104,먹골역.묵동자이아파트,127.0770859657,37.6138350067,버스정류장
7105,한국전력동대문중랑지사,127.0782566814,37.6069574374,버스정류장
7106,한국전력동대문중랑지사,127.0787485573,37.6062295611,버스정류장
7107,지하철7호선중화역,127.0791563016,37.6026485718,버스정류장
7108,지하철7호선중화역,127.0794497843,37.602844147,버스정류장
7109,국민은행중화동지점,127.0798038601,37.5989360038,버스정류장
7110,중화동한신아파트,127.0801694529,37.5990762154,버스정류장
7111,상봉2동복합청사.도서관,127.0799782951,37.5918910703,버스정류장
7112,상봉2동복합청사.도서관,127.0802876655,37.5920379201,버스정류장
7113,면목2동주민센터,127.079858977,37.5893825204,버스정류장
7114,중목초등학교,127.080221,37.590203,버스정류장
7115,면목2동사거리,127.0797304665,37.5871549201,버스정류장
7116,면목2동사거리,127.0801196457,37.5874792439,버스정류장
7117,면목5동주민센터,127.0796318097,37.584884485,버스정류장
7118,장안시장,127.0800230935,37.5855216728,버스정류장
